     2.11           OBSERVATION DATA    G (GPS)             RINEX VERSION / TYPE
teqc  2009Oct19     BNGS User           20100511 01:55:10UTCPGM / RUN BY / DATE
Solaris x86 5.10|AMD64|cc SC5.8|=+|=+                       COMMENT
teqc  2009Oct19     BNGS User           20100511 01:54:25UTCCOMMENT
teqc  2009Oct19     BNGS User           20100510 01:21:42UTCCOMMENT
teqc  2009Oct19     CORS/NGS/NOAA       20100510 01:21:41UTCCOMMENT
0000.000      (antenna height)                              COMMENT
BIT 2 OF LLI FLAGS DATA COLLECTED UNDER A/S CONDITION       COMMENT
 SNR is mapped to RINEX snr flag value [0-9]                COMMENT
  L1 & L2: min(max(int(snr_dBHz/6), 0), 9)                  COMMENT
teqc edited: all GLONASS satellites excluded                COMMENT
GARF                                                        MARKER NAME
34                                                          MARKER NUMBER
David Beiter        Ohio Department of Transportation       OBSERVER / AGENCY
4850K59783          TRIMBLE NETR5       NP 4.02 / SP 3.54   REC # / TYPE / VERS
31182713            TRM57971.00     NONE                    ANT # / TYPE
   698558.9966 -4739154.3957  4197329.8025                  APPROX POSITION XYZ
        0.0000        0.0000        0.0000                  ANTENNA: DELTA H/E/N
     1     1                                                WAVELENGTH FACT L1/2
     7    L1    L2    C1    P2    P1    S1    S2            # / TYPES OF OBSERV
    30.0000                                                 INTERVAL
teqc windowed: start @ 2010 May 10 00:00:00.000             COMMENT
teqc windowed: delta = 3600.000 sec                         COMMENT
Forced Modulo Decimation to 30 seconds                      COMMENT
  2010     5    10     0     0    0.0000000     GPS         TIME OF FIRST OBS
                                                            END OF HEADER
 10  5 10  0  0  0.0000000  0  9G03G10G19G24G16G07G23G13G06
 105711747.59047  82372848.38446  20116263.3444   20116268.1374
        47.0004         40.7004
 132040634.29845                  25126463.6254
        31.0004
 112312388.41647  87516288.33846  21372348.4224   21372351.3404
        45.4004         39.0004
 130376319.92247 101591969.70143  24809790.8984   24809798.8204
        42.2004         22.9004
 119163737.75648  92854938.75745  22676100.7584   22676104.8324
        49.0004         33.8004
 117033769.86747  91195120.24646  22270765.7034   22270770.3674
        46.4004         36.8004
 109748521.67048  85518345.28646  20884444.0234   20884446.0704
        52.1004         40.1004
 107676858.77548  83904123.30747  20490233.5704   20490237.4344
        48.7004         42.3004
 109432313.08348  85271980.94146  20824263.6414   20824268.0084
        48.5004         39.0004
 10  5 10  0  0 30.0000000  0  9G03G10G19G24G16G07G23G13G06
 105698235.96547  82362319.84546  20113691.9304   20113696.8914
        47.9004         40.9004
 132050488.65345                  25128337.3284
        31.5004
 112236883.38347  87457453.27746  21357980.3054   21357983.1214
        46.6004         38.9004
 130348443.81947 101570248.14343  24804485.8284   24804491.9344
        43.0004         22.8004
 119247470.51647  92920185.03945  22692034.1414   22692038.3324
        47.8004         33.4004
 116953885.13147  91132872.41446  22255564.4224   22255568.5944
        47.8004         36.6004
 109813373.97748  85568879.52146  20896784.3914   20896786.8954
        52.2004         40.4004
 107689706.00648  83914134.12347  20492678.7034   20492682.2774
        49.5004         42.4004
 109449931.06948  85285709.25046  20827616.3594   20827620.4534
        49.6004         39.3004
 10  5 10  0  1  0.0000000  0  9G03G10G19G24G16G07G23G13G06
 105685364.85848  82352290.41446  20111242.8984   20111247.4694
        49.2004         41.2004
 132060853.23654                  25130307.0234
        28.9004
 112161835.97147  87398974.81046  21343699.3284   21343702.2624
        45.8004         38.6004
 130321011.73046 101548872.52343  24799264.8524   24799271.2234
        40.7004         21.5004
 119331301.19447  92985507.62445  22707986.5084   22707990.4264
        47.5004         33.7004
 116874137.42248  91070731.36346  22240389.0084   22240393.4804
        48.0004         36.8004
 109878746.71248  85619819.29346  20909224.8054   20909226.9844
        51.8004         40.6004
 107703190.95348  83924641.86347  20495244.7194   20495248.3204
        51.1004         42.3004
 109468109.26148  85299874.07646  20831075.4454   20831079.4884
        50.2004         39.2004
 10  5 10  0  1 30.0000000  0  9G03G10G19G24G16G07G23G13G06
 105673135.68748  82342761.19446  20108915.8674   20108920.4144
        48.6004         41.3004
 132071727.73244                  25132377.4844
        29.9004
 112087249.60347  87340855.60446  21329505.5474   21329508.4804
        46.2004         38.6004
 130294025.99646 101527844.74843  24794130.7734   24794137.4454
        39.0004         22.0004
 119415229.01047  93050905.87445  22723957.6484   22723961.5004
        47.5004         33.1004
 116794528.87248  91008698.73246  22225240.1254   22225244.0904
        48.8004         37.3004
 109944639.13348  85671164.01146  20921763.5314   20921765.7704
        51.4004         40.4004
 107717314.50548  83935647.21647  20497932.0864   20497935.9144
        50.2004         42.1004
 109486847.48548  85314475.30646  20834641.3444   20834645.6914
        50.5004         39.4004
 10  5 10  0  2  0.0000000  0  8G03G19G24G16G07G23G13G06
 105661547.07848  82333731.10446  20106710.4924   20106715.2734
        48.3004         41.2004
 112013125.45847  87283096.56046  21315400.2894   21315403.0904
        47.1004         39.4004
 130267486.83746 101507164.87444  24789081.3834   24789088.4654
        40.0004         24.3004
 119499250.95947  93116377.49545  22739946.5864   22739950.2584
        47.3004         32.7004
 116715059.62848  90946774.66346  22210117.2974   22210122.0124
        48.6004         37.5004
 110011046.73148  85722910.15346  20934400.5004   20934402.9574
        51.5004         40.0004
 107732074.48448  83947148.48647  20500740.5474   20500744.6374
        48.3004         42.0004
 109506143.18348  85329510.92046  20838312.9224   20838317.4264
        49.2004         39.5004
 10  5 10  0  2 30.0000000  0  8G03G19G24G16G07G23G13G06
 105650600.76248  82325201.51646  20104627.5394   20104632.1484
        49.6004         41.6004
 111939467.50048  87225700.77946  21301383.8204   21301386.5314
        49.0004         39.6004
 130241397.54346 101486835.58043  24784116.0314   24784124.5124
        40.5004         22.5004
 119583367.41247  93181922.74445  22755953.5864   22755957.6684
        46.8004         32.3004
 116635732.87148  90884961.62846  22195022.3674   22195026.8984
        48.6004         37.7004
 110077969.46148  85775057.70246  20947135.1644   20947137.6134
        51.3004         39.8004
 107747472.62748  83959147.03247  20503671.0864   20503674.8014
        51.2004         42.0004
 109525997.39948  85344981.73146  20842091.1094   20842095.7114
        49.5004         38.9004
 10  5 10  0  3  0.0000000  0  8G03G19G24G16G07G23G13G06
 105640295.00048  82317171.05346  20102666.3984   20102671.3524
        50.0004         41.3004
 111866276.41548  87168668.78946  21287456.4924   21287459.0044
        48.9004         39.9004
 130215758.12146 101466856.87443  24779236.4304   24779243.1994
        41.7004         22.6004
 119667575.43747  93247539.37045  22771977.0704   22771981.1294
        46.2004         31.8004
 116556548.46048  90823259.50646  22179953.9144   22179958.4964
        48.5004         37.7004
 110145403.10648  85827603.36146  20959967.8914   20959970.0594
        49.9004         39.8004
 107763506.72848  83971641.11847  20506722.1564   20506725.6294
        51.6004         42.4004
 109546407.28548  85360885.54346  20845975.1644   20845979.4614
        49.6004         39.1004
 10  5 10  0  3 30.0000000  0  8G03G19G24G16G07G23G13G06
 105630631.15248  82309640.78746  20100827.6024   20100831.8634
        48.2004         40.9004
 111793555.89648  87112003.49346  21273617.7974   21273620.7114
        49.1004         40.3004
 130190571.86346 101447231.31343  24774443.5164   24774449.8984
        39.2004         21.1004
 119751875.02047  93313227.29745  22788019.7034   22788023.5744
        45.1004         31.6004
 116477509.36348  90761670.60946  22164913.3914   22164917.9104
        49.0004         38.3004
 110213347.09248  85880546.69046  20972897.1414   20972899.3794
        50.5004         40.2004
 107780177.87648  83984631.61146  20509894.7734   20509898.2974
        51.3004         41.9004
 109567373.04348  85377222.49846  20849964.6024   20849968.9144
        49.8004         39.4004
 10  5 10  0  4  0.0000000  0  8G03G19G24G16G07G23G13G06
 105621606.24348  82302608.39546  20099110.0234   20099114.5594
        48.9004         41.3004
 111721305.50048  87055704.50046  21259869.2274   21259871.8014
        49.3004         40.8004
 130165837.55046 101427957.86943  24769737.1644   24769743.0554
        37.7004         20.6004
 119836262.05547  93378983.40045  22804077.3674   22804081.5164
        44.3004         31.8004
 116398614.18248  90700193.84746  22149900.4224   22149904.5514
        48.8004         38.6004
 110281796.36848  85933883.75446  20985922.2274   20985925.2154
        49.7004         39.4004
 107797482.90448  83998116.04246  20513187.7664   20513191.3984
        49.5004         41.7004
 109588890.99348  85393989.72546  20854059.6484   20854063.6564
        49.0004         39.0004
 10  5 10  0  4 30.0000000  0  9G03G19G24G16G07G23G08G13G06
 105613222.86348  82296075.89446  20097514.7734   20097518.7274
        48.3004         41.4004
 111649529.07148  86999774.84146  21246210.6954   21246213.2774
        48.7004         40.6004
 130141558.66646 101409039.23143  24765117.2504   24765123.5634
        38.2004         22.0004
 119920736.63747  93444807.73345  22820152.6564   22820157.0434
        45.3004         32.2004
 116319866.09748  90638831.71746  22134915.0784   22134919.2384
        48.4004         38.7004
 110350750.57548  85987614.25046  20999044.2344   20999046.7974
        49.6004         40.0004
 133623574.13845                  25427708.7344
        31.3004
 107815423.17348  84012095.45546  20516601.7584   20516605.3594
        50.7004         41.4004
 109610961.78948  85411187.74846  20858259.4304   20858263.7154
        48.9004         39.2004
 10  5 10  0  5  0.0000000  0  9G03G19G24G16G07G23G08G13G06
 105605479.59948  82290042.18646  20096041.2894   20096045.2854
        48.4004         41.0004
 111578228.38448  86944215.88646  21232642.7664   21232644.9414
        50.5004         41.1004
 130117735.72446 101390475.93144  24760583.3834   24760591.2034
        38.8004         24.3004
 120005296.73947  93510698.68545  22836243.2734   22836247.9494
        44.3004         31.6004
 116241266.10548  90577584.98046  22119958.0704   22119962.1174
        49.0004         38.3004
 110420206.36748  86041735.59946  21012261.5634   21012263.7584
        50.7004         39.5004
 133527180.07145                  25409366.8134
        32.2004
 107833997.27648  84026568.76446  20520136.0314   20520139.7894
        48.9004         41.6004
 109633583.53848  85428815.08646  20862564.0704   20862568.3134
        48.9004         39.2004
 10  5 10  0  5 30.0000000  0  9G03G19G24G16G07G23G08G13G06
 105598378.99148  82284509.24546  20094690.1884   20094694.1724
        48.7004         40.9004
 111507407.79748  86889031.04546  21219165.7664   21219168.1884
        50.9004         41.1004
 130094372.56846 101372270.91443  24756137.4454   24756145.2894
        39.6004         22.0004
 120089943.22947  93576656.95245  22852352.0704   22852355.7934
        46.1004         31.7004
 116162817.80048  90516456.44346  22105029.5394   22105033.9654
        49.1004         37.9004
 110490163.82748  86096247.88546  21025574.0634   21025576.0784
        50.7004         40.4004
 133430712.96845                  25391009.2814
        30.5004
 107853207.05448  84041537.40846  20523791.6414   20523795.2344
        50.5004         41.6004
 109656757.44948  85446872.68546  20866973.7114   20866978.5394
        49.6004         39.4004
 10  5 10  0  6  0.0000000  0  9G03G19G24G16G07G23G08G13G06
 105591918.06548  82279474.76646  20093460.3914   20093465.1334
        50.2004         41.4004
 111437067.17448  86834220.21246  21205779.8984   21205782.8874
        49.9004         41.1004
 130071468.46846 101354423.64743  24751778.1254   24751786.2384
        37.7004         21.3004
 120174672.50847  93642679.71545  22868474.9924   22868479.0084
        45.6004         32.3004
 116084520.22248  90455445.35346  22090130.0004   22090134.2774
        50.2004         37.9004
 110560618.17948  86151147.34446  21038981.1254   21038983.1644
        51.8004         40.4004
 133334172.39045                  25372637.7894
        32.2004
 107873049.79448  84056999.27646  20527567.6094   20527571.4574
        50.3004         41.4004
 109680479.82448  85465357.63946  20871488.5554   20871492.4064
        49.2004         39.5004
 10  5 10  0  6 30.0000000  0 10G03G10G19G24G16G07G23G08G13G06
 105586097.75948  82274939.46946  20092352.9224   20092357.2034
        49.7004         41.3004
 132208256.22044                  25158353.5554
        29.1004
 111367209.91248  86779786.00046  21192486.8674   21192489.5634
        48.9004         40.8004
 130049025.89945 101336935.97643  24747506.9454   24747515.4574
        35.0004         19.6004
 120259484.04447  93708766.59545  22884614.6484   22884617.9494
        46.3004         32.1004
 116006376.07348  90394553.81746  22075259.7504   22075263.6414
        49.5004         38.3004
 110631568.18448  86206433.01446  21052482.6414   21052484.6174
        51.9004         40.3004
                                  25354252.7194
        30.5004
 107893525.76148  84072954.56146  20531464.1954   20531467.6214
        50.3004         41.7004
 109704750.55848  85484269.90746  20876107.1804   20876111.2384
        50.9004         39.9004
 10  5 10  0  7  0.0000000  0 10G03G10G19G24G16G07G23G08G13G06
 105580917.86148  82270903.18846  20091367.3444   20091371.8164
        50.6004         40.9004
 132224656.18745                  25161473.8284
        31.3004
 111297837.45348  86725729.57546  21179285.9614   21179288.3794
        49.3004         41.0004
 130027045.80645 101319808.67443  24743325.7974   24743332.3164
        34.6004         20.1004
 120344375.97047  93774916.10945  22900769.5084   22900773.0004
        46.0004         32.1004
 115928386.32248  90333782.58846  22060418.6484   22060423.0824
        49.6004         38.6004
 110703010.91148  86262102.63646  21066077.5704   21066079.4774
        52.8004         40.1004
 133140870.55044                  25335851.6724
        25.3004
 107914633.87448  84089402.42946  20535480.6254   20535484.6294
        50.0004         41.3004
 109729568.03148  85503608.18146  20880829.6414   20880833.7304
        50.3004         39.4004
 10  5 10  0  7 30.0000000  0 10G03G10G19G24G16G07G23G08G13G06
 105576379.77048  82267367.01246  20090503.5784   20090507.7544
        49.8004         40.8004
 132241552.85245                  25164689.8524
        32.0004
 111228954.08848  86672054.25246  21166177.4844   21166180.3164
        48.4004         40.5004
 130005531.67346 101303044.43743  24739231.7584   24739238.7504
        38.1004         22.2004
 120429349.02647  93841128.85045  22916939.1484   22916942.4264
        44.7004         31.5004
 115850554.67948  90273134.56846  22045608.2194   22045612.3954
        50.2004         38.6004
 110774945.77848  86318155.74346  21079766.1254   21079768.4614
        52.6004         40.6004
                                  25317437.7114
        25.3004
 107936375.70248  84106344.09546  20539617.8674   20539622.2934
        49.8004         41.7004
 109754932.62248  85523372.79346  20885656.3594   20885660.5824
        50.5004         39.9004
 10  5 10  0  8  0.0000000  0  9G03G10G19G24G16G07G23G13G06
 105572480.94948  82264328.97246  20089761.7274   20089765.9494
        49.7004         40.9004
 132258942.48044                  25167996.6884
        29.9004
 111160559.23048  86618759.59346  21153162.4384   21153165.3954
        48.6004         40.7004
 129984482.59646 101286642.62443  24735225.9304   24735232.2704
        39.9004         22.8004
 120514399.55747  93907401.95445  22933123.4534   22933127.5164
        44.6004         32.3004
 115772880.02148  90212608.86946  22030826.7344   22030830.8364
        50.0004         38.9004
 110847368.01648  86374588.61446  21093547.7274   21093550.2734
        51.9004         40.1004
 107958748.07547  84123777.09946  20543875.0554   20543878.9774
        47.5004         41.1004
 109780841.09147  85543561.21346  20890586.4144   20890590.7544
        47.5004         39.6004
 10  5 10  0  8 30.0000000  0  9G03G10G19G24G16G07G23G13G06
 105569223.71448  82261790.87446  20089141.9224   20089146.1764
        49.3004         41.3004
 132276826.40044                  25171401.8054
        28.6004
 111092658.32748  86565849.83646  21140241.3444   21140244.1054
        48.2004         40.4004
 129963903.01446 101270606.65943  24731308.9144   24731316.0434
        39.0004         23.0004
 120599529.00347  93973736.56945  22949322.9924   22949327.0634
        44.5004         32.5004
 115695366.81048  90152208.97246  22016076.5634   22016080.9064
        49.1004         38.3004
 110920278.16748  86431401.67546  21107422.2894   21107424.9144
        52.1004         39.8004
 107981753.31848  84141703.24346  20548252.8134   20548256.9924
        51.0004         41.3004
 109807295.19248  85564174.79346  20895620.2424   20895624.9884
        49.1004         39.3004
 10  5 10  0  9  0.0000000  0  9G03G10G19G24G16G07G23G13G06
 105566606.23148  82259751.28446  20088643.8054   20088647.8364
        48.8004         41.0004
 132295201.73745                  25174899.7424
        31.0004
 111025251.18048  86513324.82246  21127414.0004   21127416.8524
        48.0004         39.8004
 129943792.45346 101254936.12843  24727482.7424   24727490.0474
        36.9004         21.8004
 120684734.10747  94040130.13245  22965537.5784   22965541.0124
        47.0004         32.9004
 115618014.65248  90091934.57546  22001356.7274   22001361.0394
        49.6004         38.7004
 110993671.76148  86488591.44946  21121388.5004   21121391.0394
        52.3004         39.8004
 108005388.55748  84160120.29546  20552750.4924   20552755.0004
        48.0004         41.3004
 109834291.29948  85585210.71346  20900757.7974   20900762.3674
        48.0004         39.6004
 10  5 10  0  9 30.0000000  0  9G03G10G19G24G16G07G23G13G06
 105564628.92348  82258210.52046  20088267.7274   20088271.9964
        48.0004         40.9004
                                  25178492.3054
        29.1004
 110958340.66747  86461186.78846  21114681.2274   21114683.7154
        47.6004         39.9004
 129924152.61545 101239632.36343  24723745.4064   24723753.0904
        35.5004         22.5004
 120770014.22447  94106582.14145  22981765.3914   22981769.8444
        45.7004         32.2004
 115540825.84048  90031787.46046  21986668.0704   21986672.4964
        49.4004         37.8004
 111067547.00548  86546156.53346  21135446.2734   21135448.7664
        51.7004         39.5004
 108029653.73548  84179028.21546  20557368.0394   20557372.3634
        50.5004         41.1004
 109861828.80848  85606668.51146  20905998.0634   20906002.3204
        49.0004         39.2004
 10  5 10  0 10  0.0000000  0  9G03G10G19G24G16G07G23G13G06
 105563291.33848  82257168.25446  20088013.0234   20088017.6414
        49.0004         41.3004
 132333422.90244                  25182171.3984
        28.3004
 110891928.96548  86409437.43846  21102043.4614   21102046.2424
        48.2004         40.2004
 129904985.17846 101224696.71843  24720097.9844   24720105.5704
        39.6004         21.7004
 120855368.01447  94173091.57545  22998007.7114   22998011.8054
        45.3004         31.6004
 115463801.95148  89971768.85246  21972011.1254   21972015.2774
        49.5004         38.3004
 111141901.43448  86604095.00946  21149595.8054   21149598.0864
        50.7004         39.0004
 108054548.19848  84198426.47546  20562106.0554   20562109.3954
        49.8004         41.5004
 109889906.56048  85628547.26746  20911340.9064   20911345.3324
        48.8004         40.0004
 10  5 10  0 10 30.0000000  0  9G03G10G19G24G16G07G23G13G06
 105562592.58348  82256623.77746  20087880.1094   20087884.3674
        48.8004         41.2004
                                  25185948.7274
        27.3004
 110826017.59348  86358077.96346  21089501.3834   21089503.7734
        49.2004         41.3004
 129886290.73746 101210129.72743  24716540.1724   24716547.1884
        39.4004         22.8004
 120940793.49147  94239656.86545  23014263.5554   23014267.8874
        46.1004         32.0004
 115386944.07648  89911879.61146  21957385.4304   21957389.5824
        49.8004         37.8004
 111216732.02948  86662404.51946  21163835.1724   21163837.9654
        50.5004         38.6004
 108080070.85748  84218314.24646  20566962.4924   20566966.4804
        49.8004         41.7004
 109918522.26848  85650845.21546  20916786.3594   20916790.9574
        49.5004         39.6004
 10  5 10  0 11  0.0000000  0  9G03G10G19G24G16G07G23G13G06
 105562533.45848  82256577.70746  20087868.4384   20087873.2544
        50.3004         40.6004
                                  25189816.2424
        25.3004
 110760609.94148  86307110.98646  21077054.6254   21077056.9654
        49.9004         40.9004
 129868071.76346 101195933.18843  24713073.1644   24713079.5824
        38.3004         22.6004
 121026290.77047  94306278.07445  23030533.8364   23030536.4884
        46.1004         31.2004
 115310255.23748  89852122.08146  21942792.2504   21942796.1054
        49.6004         38.4004
 111292037.42848  86721084.00346  21178165.5634   21178167.8094
        51.0004         38.4004
 108106221.60648  84238691.43146  20571938.8754   20571942.7974
        49.3004         41.3004
 109947676.41347  85673562.72946  20922334.2814   20922338.5784
        47.9004         40.0004
 10  5 10  0 11 30.0000000  0  9G03G19G24G16G07G23G08G13G06
 105563112.62248  82257029.00346  20087979.1334   20087983.3874
        49.3004         40.6004
 110695706.75948  86256537.10046  21064703.9224   21064706.3554
        48.5004         40.9004
 129850328.89346 101182107.56743  24709697.0944   24709704.2234
        37.7004         22.5004
 121111857.58147  94372953.51045  23046816.3834   23046819.7974
        47.2004         31.7004
 115233735.71448  89792496.47146  21928230.7894   21928235.3444
        49.2004         38.6004
 111367814.35448  86780130.91546  21192585.3134   21192587.5864
        50.2004         38.3004
 132267580.16845                  25169671.1954
        32.4004
 108132999.00648  84259556.92346  20577034.3444   20577037.9384
        48.4004         41.4004
 109977366.17848  85696697.60646  20927983.7814   20927988.5634
        49.5004         39.8004
 10  5 10  0 12  0.0000000  0  9G03G19G24G16G07G23G08G13G06
 105564330.06748  82257977.66346  20088210.6094   20088214.8444
        49.4004         41.3004
 110631310.99348  86206358.61246  21052449.9224   21052451.8484
        49.2004         40.5004
 129833063.84146 101168654.30743  24706411.4774   24706418.5124
        39.7004         22.9004
 121197493.14947  94439682.46545  23063111.8444   23063115.3484
        47.4004         30.5004
 115157387.52848  89733004.38646  21913702.3834   21913706.5784
        49.5004         39.3004
 111444060.79848  86839543.69446  21207094.6564   21207097.1254
        50.4004         38.0004
 132170215.50445                  25151142.4694
        30.7004
 108160402.52748  84280910.29246  20582249.2424   20582252.8834
        48.2004         41.9004
 110007591.07748  85720249.46746  20933735.3594   20933739.8714
        49.5004         39.4004
 10  5 10  0 12 30.0000000  0  9G03G19G24G16G07G23G08G13G06
 105566183.86848  82259422.19146  20088563.3674   20088567.7464
        48.6004         40.9004
 110567423.08548  86156575.84446  21040292.4774   21040294.6454
        48.2004         41.2004
 129816276.40846 101155573.22844  24703217.1254   24703225.1254
        40.3004         24.4004
 121283195.13247  94506463.19845  23079420.5314   23079424.3484
        47.2004         30.4004
 115081211.45048  89673646.40546  21899206.4844   21899211.0904
        49.9004         39.1004
 111520772.53948  86899319.02746  21221692.5864   21221695.2234
        49.9004         38.4004
 132072786.61845                  25132601.3594
        30.5004
 108188430.12448  84302749.96446  20587582.8754   20587586.6094
        49.1004         41.6004
 110038348.18048  85744216.03846  20939588.1644   20939592.9144
        49.6004         39.4004
 10  5 10  0 13  0.0000000  0  9G03G19G24G16G07G23G08G13G06
 105568676.77848  82261364.71846  20089038.1024   20089042.2664
        49.3004         41.6004
 110504047.59348  86107192.36346  21028232.4774   21028234.7274
        48.7004         40.9004
 129799970.67646 101142867.53144  24700113.2664   24700122.0354
        40.7004         24.4004
 121368964.71247  94573296.63445  23095742.1254   23095745.8914
        45.3004         30.5004
 115005211.52148  89614425.70046  21884744.1414   21884748.4774
        48.8004         38.9004
 111597950.02448  86959457.29646  21236378.6724   21236381.3984
        50.9004         38.2004
 131975296.72745                  25114050.2504
        33.8004
 108217084.10847  84325077.71747  20593035.3674   20593039.4264
        47.8004         42.1004
 110069638.81947  85768598.34746  20945543.0704   20945547.3444
        46.8004         39.7004
 10  5 10  0 13 30.0000000  0  9G03G19G24G16G07G23G08G13G06
 105571805.57348  82263802.74146  20089633.2664   20089637.2664
        50.5004         41.3004
 110441184.63147  86058208.26646  21016269.9454   21016272.5744
        47.8004         41.2004
 129784145.86846 101130536.55743  24697101.9224   24697109.4534
        38.9004         22.8004
 121454798.73247  94640180.27044  23112075.5474   23112079.3094
        44.9004         29.5004
 114929387.66148  89555342.18146  21870315.1254   21870319.7234
        49.6004         39.2004
 111675588.58448  87019954.82546  21251153.0004   21251155.4884
        50.9004         38.4004
 131877744.07745                  25095486.5234
        35.7004
 108246360.81448  84347890.72047  20598606.7734   20598610.4494
        49.6004         42.2004
 110101459.52048  85793393.70146  20951598.0864   20951602.5744
        50.2004         39.2004
 10  5 10  0 14  0.0000000  0  9G03G19G24G16G07G23G08G13G06
 105575569.99848  82266736.06546  20090349.5634   20090353.9414
        50.9004         41.3004
 110378836.31948  86009625.19046  21004405.4694   21004407.9774
        48.5004         41.1004
 129768803.52446 101118581.53443  24694184.0164   24694189.0514
        38.8004         22.6004
 121540696.21547  94707113.35344  23128421.8364   23128425.4304
        46.4004         28.9004
 114853740.97048  89496396.71846  21855920.3204   21855924.8364
        49.8004         38.6004
 111753685.84748  87080809.79646  21266014.5944   21266017.0314
        51.5004         38.7004
 131780129.93045                  25076911.8984
        35.8004
 108276259.47448  84371188.35646  20604296.3204   20604300.2074
        50.9004         41.9004
 110133808.98848  85818601.06746  20957753.7274   20957758.3134
        49.4004         39.2004
 10  5 10  0 14 30.0000000  0  9G03G19G24G16G07G23G08G13G06
 105579971.05148  82270165.46146  20091187.1174   20091191.2504
        48.5004         41.1004
 110317005.71648  85961445.52046  20992639.3834   20992641.5704
        48.7004         40.6004
 129753946.00146 101107004.28943  24691355.7814   24691362.3444
        38.8004         23.5004
 121626657.01747  94774095.79944  23144778.5944   23144783.4064
        45.7004         28.9004
 114778274.58148  89437591.74146  21841559.5084   21841563.4924
        50.5004         38.9004
 111832240.46148  87142021.13746  21280963.3444   21280965.7154
        51.9004         38.8004
 131682456.47445                  25058325.3984
        35.5004
 108306780.58948  84394971.03847  20610103.8914   20610108.2304
        50.6004         42.0004
 110166686.88648  85844220.19746  20964010.4384   20964015.1134
        48.1004         39.0004
 10  5 10  0 15  0.0000000  0  9G03G19G24G16G07G23G08G13G06
 105585006.78848  82274089.42046  20092145.3594   20092149.5204
        50.2004         41.0004
 110255693.70347  85913669.94546  20980971.9144   20980974.5514
        47.9004         40.4004
 129739573.22246 101095804.77343  24688621.0554   24688628.1844
        37.8004         22.3004
 121712678.83447  94841125.71244  23161149.1254   23161152.9694
        45.4004         29.1004
 114702989.47148  89378928.02846  21827233.4844   21827237.2974
        50.2004         38.7004
 111911248.38048  87203585.70646  21295997.9454   21296000.0354
        51.9004         39.0004
 131584723.53946                  25039727.2664
        36.1004
 108337921.96348  84419237.02347  20616030.2034   20616034.0234
        50.3004         42.5004
 110200090.61448  85870249.06846  20970366.8524   20970371.3364
        50.2004         39.4004
 10  5 10  0 15 30.0000000  0  9G03G19G24G16G07G23G08G13G06
 105590677.74848  82278508.35046  20093224.5004   20093228.8014
        50.0004         41.4004
 110194903.24047  85866300.78546  20969403.8834   20969406.6454
        47.5004         40.9004
 129725687.66146 101084984.89143  24685978.9224   24685986.3054
        38.4004         22.6004
 121798761.35747  94908202.97344  23177529.2114   23177532.9264
        45.9004         28.5004
 114627887.84648  89320407.28346  21812942.0004   21812946.1214
        50.1004         38.6004
 111990708.32148  87265502.49546  21311118.6564   21311120.9304
        52.1004         39.1004
 131486933.07745                  25021117.5864
        35.5004
 108369683.70448  84443986.40947  20622074.3674   20622078.2304
        50.2004         42.1004
 110234019.81148  85896687.40246  20976823.5784   20976828.0204
        49.2004         39.4004
 10  5 10  0 16  0.0000000  0  9G03G19G24G16G07G23G08G13G06
 105596982.34848  82283421.03246  20094424.4384   20094428.1994
        49.8004         41.2004
 110134635.35248  85819338.82446  20957934.9924   20957937.8404
        48.6004         40.7004
 129712289.31446 101074544.67643  24683427.3834   24683436.3914
        37.4004         22.5004
 121884902.79747  94975326.16744  23193921.6644   23193925.4304
        45.4004         27.7004
 114552970.77848  89262030.35146  21798686.0004   21798689.7074
        50.5004         39.2004
 112070616.64248  87327768.67146  21326324.6564   21326327.1884
        52.1004         39.9004
 131389084.87245                  25002497.4614
        33.9004
 108402063.84848  84469217.67847  20628236.1254   20628239.8714
        50.8004         42.6004
 110268471.89548  85923533.17946  20983379.3594   20983383.9734
        50.5004         39.4004
 10  5 10  0 16 30.0000000  0  9G03G19G24G16G07G23G08G13G06
 105603922.00448  82288828.56846  20095744.8054   20095748.9734
        49.0004         41.1004
 110074893.51947  85772786.78146  20946566.5234   20946569.4454
        47.4004         40.6004
 129699381.53745 101064486.68243  24680971.9694   24680979.6524
        33.5004         20.9004
 121971103.76847  95042495.71644  23210325.2734   23210328.9804
        44.2004         27.7004
 114478241.71848  89203799.92846  21784465.1414   21784469.7464
        50.0004         39.0004
 112150972.53348  87390383.59846  21341615.9694   21341618.5594
        51.2004         38.6004
 131291181.45145                  24983866.2894
        33.7004
 108435063.00648  84494931.28346  20634515.3364   20634519.4304
        50.2004         41.7004
 110303447.69448  85950787.03446  20990035.1724   20990039.2194
        48.6004         38.9004
 10  5 10  0 17  0.0000000  0  9G03G19G24G16G07G23G08G13G06
 105611494.10148  82294728.89346  20097185.8984   20097189.7424
        50.5004         40.9004
 110015678.30848  85726645.08046  20935298.0474   20935301.1564
        48.0004         41.1004
 129686963.56445 101054810.37543  24678608.9304   24678615.1254
        32.4004         20.9004
 122057361.44147  95109709.46444  23226739.1024   23226744.1604
        43.4004         27.1004
 114403700.78648  89145716.09346  21770280.5394   21770284.5904
        50.8004         39.1004
 112231771.77748  87453343.99946  21356991.4534   21356994.1524
        51.9004         38.8004
 131193222.26345                  24965226.6024
        33.7004
 108468678.63348  84521125.26646  20640912.1254   20640915.9534
        48.3004         41.7004
 110338943.54348  85978446.12746  20996789.7814   20996794.4804
        48.0004         39.2004
 10  5 10  0 17 30.0000000  0  9G03G19G24G16G07G23G08G13G06
 105619697.41748  82301121.09346  20098746.5784   20098750.7584
        48.6004         41.4004
 109956990.87847  85680914.64546  20924130.8444   20924133.2734
        47.6004         41.1004
 129675036.07546 101045516.28743  24676340.2664   24676346.1564
        36.6004         21.3004
 122143674.09647  95176966.05844  23243164.1954   23243168.5164
        44.5004         27.5004
 114329349.34448  89087779.91646  21756131.8204   21756136.4924
        51.1004         38.9004
 112313011.23448  87516647.41246  21372450.9384   21372453.7544
        51.3004         38.8004
 131095207.92846                  24946574.9694
        36.7004
 108502908.89048  84547798.17946  20647426.1254   20647430.4534
        49.4004         41.8004
 110374957.56648  86006508.99746  21003643.0314   21003647.4654
        48.5004         39.4004
 10  5 10  0 18  0.0000000  0  9G03G19G24G16G07G23G08G13G06
 105628532.15748  82308005.31246  20100427.6804   20100431.9924
        49.6004         40.9004
 109898834.07647  85635597.68147  20913063.6564   20913066.5204
        47.7004         42.1004
 129663600.98446 101036605.89043  24674162.8984   24674171.4964
        37.1004         21.7004
 122230041.57647  95244265.32544  23259599.4844   23259604.0634
        42.9004         26.5004
 114255189.68048  89029993.17846  21742019.8754   21742023.9414
        50.9004         39.4004
 112394688.93148  87580292.32146  21387993.6174   21387996.4224
        50.7004         38.8004
 130997139.86646                  24927914.7114
        37.3004
 108537753.63148  84574949.90546  20654056.3914   20654061.1024
        48.6004         41.5004
 110411488.88148  86034974.95746  21010594.7114   21010598.9454
        48.5004         38.9004
 10  5 10  0 18 30.0000000  0  9G03G19G24G16G07G23G08G13G06
 105637996.99148  82315380.50346  20102229.2734   20102233.2154
        50.8004         41.3004
 109841208.59748  85590694.74646  20902098.0314   20902100.4264
        48.9004         41.4004
 129652658.72246 101028079.48343  24672080.7194   24672089.5274
        36.3004         21.7004
 122316462.00847  95311605.91344  23276044.8524   23276049.1804
        45.5004         27.1004
 114181222.94048  88972356.76546  21727944.3284   21727948.5984
        50.7004         39.9004
 112476801.58348  87644276.15646  21403619.2974   21403622.1374
        51.4004         38.4004
 130899018.65646 101999197.91042  24909242.0704   24909246.4024
        38.7004         16.9004
 108573211.00948  84602579.01046  20660803.7194   20660808.4144
        49.8004         41.6004
 110448535.36548  86063842.34846  21017644.5634   21017648.4024
        50.0004         39.1004
 10  5 10  0 19  0.0000000  0  9G03G19G24G16G07G23G08G13G06
 105648092.55948  82323247.17946  20104150.4224   20104154.6294
        51.0004         41.6004
 109784117.90948  85546208.51546  20891234.1644   20891236.8524
        49.2004         41.8004
 129642211.84745 101019939.03543  24670093.7034   24670100.8364
        32.6004         21.3004
 122402935.76347  95378988.01744  23292499.8364   23292504.6644
        43.2004         27.2004
 114107452.41448  88914873.25146  21713906.3594   21713910.5984
        51.8004         39.8004
 112559348.00348  87708597.99546  21419327.1024   21419329.8754
        51.0004         38.1004
 130800845.86946 101922699.72843  24890559.7034   24890565.4264
        38.7004         18.3004
 108609281.20747  84630685.63046  20667667.8834   20667672.3134
        47.5004         41.3004
 110486096.87448  86093111.04946  21024792.1484   21024796.4654
        48.2004         38.6004
 10  5 10  0 19 30.0000000  0  9G03G19G24G16G07G23G08G13G06
 105658817.79348  82331604.51146  20106190.9064   20106195.5394
        50.5004         41.3004
 109727563.27348  85502139.99146  20880472.0084   20880474.2464
        49.1004         41.4004
 129632260.91446 101012185.10143  24668200.4144   24668205.9184
        38.1004         22.3004
 122489461.22946  95446410.42144  23308965.6174   23308970.3014
        40.5004         27.2004
 114033879.56648  88857543.76246  21699906.0234   21699910.1994
        51.5004         40.1004
 112642325.15348  87773255.44846  21435117.5004   21435120.4734
        50.1004         38.2004
 130702622.68246 101846162.21142  24871869.0474   24871874.3364
        38.9004         17.8004
 108645962.72248  84659268.60746  20674648.1414   20674652.1884
        48.1004         40.5004
 110524171.36448  86122779.47146  21032037.4454   21032041.6484
        50.8004         39.0004
 10  5 10  0 20  0.0000000  0  9G03G19G24G16G07G23G08G13G06
 105670170.94348  82340451.12246  20108351.2344   20108355.9844
        50.9004         40.8004
 109671545.88948  85458490.10846  20869812.0944   20869814.5474
        48.3004         41.5004
 129622806.05646 101004817.71343  24666401.1564   24666405.9454
        41.3004         22.6004
 122576036.61046  95513871.71144  23325440.5004   23325444.5474
        39.4004         26.9004
 113960505.20448  88800368.95346  21685943.4384   21685947.9104
        51.4004         40.2004
 112725729.48548  87838245.78046  21450988.5164   21450991.4064
        51.1004         38.0004
 130604349.62346 101769585.79343  24853168.2734   24853174.0554
        37.3004         18.6004
 108683253.51347  84688326.32946  20681744.3754   20681748.6564
        47.5004         40.9004
 110562756.31547  86152845.67946  21039379.9224   21039384.1484
        47.8004         38.4004
 10  5 10  0 20 30.0000000  0  9G03G19G24G16G07G23G08G13G06
 105682152.16048  82349787.14046  20110631.6024   20110636.0514
        50.6004         41.6004
 109616068.15548  85415260.73146  20859254.8444   20859257.6524
        49.2004         41.3004
 129613848.96846 100997838.22043  24664695.8524   24664702.3554
        40.7004         23.0004
 122662661.59947  95581371.66744  23341924.1724   23341928.6884
        43.0004         27.1004
 113887331.36548  88743350.38546  21672018.7424   21672023.1954
        51.1004         40.4004
 112809559.06448  87903567.46946  21466941.0474   21466943.7384
        51.7004         38.7004
 130506027.96246 101692971.54943  24834457.8594   24834463.9344
        38.1004         18.6004
 108721152.95248  84717858.33346  20688956.3364   20688960.7194
        49.8004         41.1004
 110601850.97948  86183309.04946  21046819.3364   21046824.1134
        49.9004         39.3004
 10  5 10  0 21  0.0000000  0  9G03G19G24G16G07G23G08G13G06
 105694760.01348  82359611.43646  20113030.5944   20113034.6954
        49.8004         41.4004
 109561131.62148  85372453.06946  20848800.8594   20848803.7584
        48.9004         41.1004
 129605390.56546 100991247.25943  24663086.2664   24663094.3524
        36.9004         23.6004
 122749334.93747  95648909.31944  23358418.1724   23358421.6134
        44.6004         27.3004
 113814359.95648  88686489.56546  21658132.4454   21658136.6174
        50.4004         39.5004
 112893810.80448  87969218.13546  21482973.7664   21482976.3634
        51.0004         37.6004
 130407657.99846 101616319.67143  24815737.8054   24815744.4264
        37.2004         19.6004
 108759659.71548  84747863.57846  20696283.8444   20696288.1954
        49.8004         40.9004
 110641453.47048  86214168.12946  21054355.2114   21054359.4844
        49.4004         39.5004
 10  5 10  0 21 30.0000000  0  9G03G19G24G16G07G23G08G13G06
 105707992.81348  82369922.71146  20115548.8984   20115553.2274
        50.8004         41.4004
 109506737.18648  85330067.81147  20838450.2194   20838453.0084
        49.3004         42.1004
 129597431.21445 100985045.14443  24661572.5554   24661579.7814
        35.0004         21.1004
 122836054.72347  95716483.15244  23374920.0784   23374924.3834
        44.7004         28.4004
 113741592.19348  88629787.42946  21644285.4454   21644289.6804
        50.2004         40.0004
 112978481.20748  88035195.01746  21499086.0944   21499088.4064
        51.8004         38.1004
 130309240.72846 101539630.94043  24797010.2974   24797016.7114
        38.8004         19.3004
 108798771.66548  84778340.40246  20703727.0164   20703731.5394
        51.0004         41.3004
 110681561.40248  86245421.06646  21061988.0234   21061992.4144
        50.6004         39.0004
 10  5 10  0 22  0.0000000  0  9G03G19G24G16G07G23G08G13G06
 105721850.54248  82380720.94646  20118185.8134   20118189.9924
        50.0004         41.8004
 109452887.25948  85288106.86346  20828202.6644   20828205.3524
        48.6004         41.4004
 129589972.32746 100979233.01943  24660152.9774   24660158.7544
        37.6004         21.8004
 122922820.83947  95784093.09344  23391431.5084   23391435.3794
        44.6004         28.9004
 113669030.67348  88573245.99946  21630477.3754   21630481.3794
        50.3004         39.6004
 113063568.51248  88101496.76646  21515277.8834   21515280.2504
        51.8004         38.3004
 130210777.60746 101462906.44943  24778273.5554   24778280.2584
        39.2004         19.0004
 108838488.48848  84809288.54846  20711285.1954   20711288.9884
        51.2004         41.3004
 110722173.97348  86277067.21146  21069716.2584   21069720.8014
        50.2004         39.2004
 10  5 10  0 22 30.0000000  0  9G03G19G24G16G07G23G08G13G06
 105736332.91448  82392005.91146  20120941.8204   20120946.0274
        49.2004         40.9004
 109399583.90948  85246571.79746  20818059.6564   20818061.8444
        49.3004         41.7004
 129583015.32146 100973812.05143  24658828.0394   24658834.6024
        38.9004         22.3004
 123009632.67347  95851738.63445  23407951.0234   23407955.5514
        45.3004         30.2004
 113596677.53648  88516866.94146  21616709.2114   21616713.1844
        49.5004         40.4004
 113149070.21848  88168121.43546  21531548.4384   21531550.6254
        51.6004         38.1004
 130112270.35046 101386147.53443  24759528.4774   24759533.8204
        39.3004         19.3004
 108878809.01148  84840707.11346  20718957.9144   20718961.4144
        51.2004         41.4004
 110763289.94648  86309105.62746  21077540.3364   21077544.7734
        49.9004         38.8004
 10  5 10  0 23  0.0000000  0  9G03G19G24G16G07G23G08G13G06
 105751438.28248  82403776.32446  20123816.1024   20123820.0434
        49.2004         40.9004
 109346828.31248  85205463.56646  20808020.7274   20808022.6254
        50.0004         41.7004
 129576560.43046 100968782.34444  24657599.4614   24657606.6214
        37.6004         24.2004
 123096488.25447  95919418.28045  23424478.5084   23424483.9694
        44.9004         30.4004
 113524533.91648  88460651.15246  21602980.5634   21602984.4844
        49.7004         40.6004
 113234982.97348  88235066.39046  21547896.8674   21547899.7974
        52.0004         38.6004
 130013719.44646 101309354.65743  24740774.7344   24740780.3524
        39.2004         18.6004
 108919731.16048  84872594.49246  20726744.7584   20726748.6254
        51.2004         41.2004
 110804906.83448  86341534.37946  21085459.9384   21085464.0864
        48.9004         38.7004
 10  5 10  0 23 30.0000000  0  9G03G19G24G16G07G23G08G13G06
 105767166.52448  82416032.10146  20126809.3284   20126813.6174
        49.1004         41.4004
 109294622.96248  85164784.08346  20798086.1644   20798088.7664
        49.9004         41.8004
 129570609.70545 100964145.40643  24656468.1804   24656474.5084
        33.2004         21.5004
 123183387.78147  95987132.17644  23441015.1564   23441020.0164
        44.9004         29.9004
 113452602.50348  88404600.71046  21589292.5084   21589296.6454
        48.8004         39.9004
 113321304.83248  88302330.12746  21564323.5084   21564326.1174
        51.5004         38.5004
 129915126.38846 101232528.95142  24722012.7424   24722018.3914
        39.7004         17.8004
 108961254.62948  84904950.41646  20734646.6724   20734650.6054
        51.1004         41.4004
 110847023.75348  86374352.76146  21093474.4304   21093478.8834
        48.7004         38.4004
 10  5 10  0 24  0.0000000  0  9G03G19G24G16G07G23G08G13G06
 105783515.65448  82428771.67846  20129920.2584   20129924.9654
        48.7004         41.2004
 109242968.34748  85124533.75846  20788256.7034   20788259.0554
        48.7004         41.6004
 129565162.88245 100959901.05943  24655431.7894   24655439.2234
        34.6004         22.2004
 123270329.09647  96054878.60645  23457560.2114   23457564.5744
        45.4004         30.5004
 113380884.50048  88348716.57246  21575644.9614   21575649.6214
        48.8004         39.7004
 113408032.30148  88369909.92346  21580827.0704   21580829.5554
        50.9004         38.2004
 129816491.54846 101155670.61543  24703243.4694   24703248.8984
        40.0004         19.0004
 109003376.85848  84937772.92246  20742662.2424   20742666.0394
        51.1004         41.7004
 110889638.14048  86407558.77146  21101583.5634   21101587.7274
        48.5004         38.3004
 10  5 10  0 24 30.0000000  0  9G03G19G24G16G07G23G08G13G06
 105800484.85748  82441994.43846  20133149.3284   20133153.7234
        49.0004         41.3004
 109191866.54848  85084714.20846  20778532.2114   20778534.4384
        49.6004         41.5004
 129560221.29146 100956050.51243  24654490.7114   24654497.8874
        40.0004         22.3004
 123357311.82747  96122657.33045  23474112.5784   23474116.6054
        45.5004         30.5004
 113309381.88848  88293000.26646  21562038.6094   21562042.5864
        48.4004         40.2004
 113495162.87448  88437803.82446  21597407.5474   21597410.3404
        50.9004         37.7004
 129717816.40746 101078780.91643  24684466.0554   24684471.8674
        40.7004         19.3004
 109046097.17348  84971061.45246  20750792.1174   20750795.5664
        52.1004         41.8004
 110932748.77848  86441151.47746  21109787.2114   21109791.3634
        48.5004         38.3004
 10  5 10  0 25  0.0000000  0  9G03G19G24G16G07G23G08G13G06
 105818072.33048  82455698.95346  20136496.2424   20136500.6094
        50.0004         41.4004
 109141318.32648  85045326.00246  20768913.0704   20768915.9614
        48.5004         41.4004
 129555784.62446 100952593.41943  24653646.9694   24653653.1024
        40.9004         22.0004
 123444333.90047  96190466.71845  23490672.0554   23490676.5124
        46.3004         30.4004
 113238095.33648  88237452.32346  21548472.9844   21548477.3794
        49.9004         40.1004
 113582692.84748  88506008.93346  21614063.9694   21614066.4414
        50.9004         38.1004
 129619101.15646 101001859.93043  24665681.0704   24665686.6804
        39.8004         19.0004
 109089412.97248  85004814.01846  20759034.4924   20759038.7734
        51.9004         41.7004
 110976352.82948  86475128.64846  21118084.6024   21118089.3634
        48.4004         38.0004
 10  5 10  0 25 30.0000000  0  9G03G19G24G16G07G23G08G13G06
 105836278.05848  82469885.23646  20139960.6724   20139965.1484
        50.2004         41.1004
 109091325.88048  85006370.87646  20759400.1094   20759402.3134
        49.1004         41.9004
 129551854.73646 100949531.25243  24652896.3914   24652904.3444
        36.8004         19.6004
 123531395.37047  96258306.77944  23507239.4064   23507243.2854
        46.1004         29.7004
 113167027.65148  88182074.90746  21534949.1954   21534953.3054
        48.9004         39.5004
 113670620.27748  88574523.75746  21630795.6644   21630798.7734
        51.1004         37.9004
 129520347.31846 100924908.93343  24646889.1414   24646894.7664
        39.8004         20.1004
 109133323.37848  85039029.89746  20767390.2504   20767394.3794
        52.1004         41.7004
 111020449.33148  86509489.55346  21126475.9454   21126480.6644
        49.5004         38.1004
 10  5 10  0 26  0.0000000  0  9G03G19G24G16G07G23G08G13G06
 105855100.36048  82484551.96446  20143542.2274   20143547.0394
        50.3004         41.4004
 109041890.53048  84967849.83246  20749992.3594   20749994.5944
        48.4004         41.4004
 129548432.06645 100946864.20943  24652247.4614   24652253.5274
        34.4004         19.3004
 123618494.59647  96326176.28344  23523814.1414   23523817.1454
        44.9004         29.1004
 113096180.81848  88126869.59946  21521467.5084   21521471.3284
        48.7004         39.5004
 113758941.80748  88643345.67346  21647602.9064   21647605.7934
        50.2004         36.9004
 129421556.03846 100847928.73843  24628089.1884   24628095.5234
        40.9004         20.9004
 109177826.82948  85073707.87946  20775858.8674   20775863.3714
        51.3004         41.3004
 111065036.42748  86544232.74346  21134960.8524   21134965.0634
        49.8004         38.5004
 10  5 10  0 26 30.0000000  0  9G03G19G24G16G07G23G08G13G06
 105874538.11548  82499698.26146  20147241.4304   20147246.1914
        49.6004         41.4004
 108993013.40748  84929763.78946  20740691.6564   20740693.6414
        48.5004         41.8004
 129545517.16646 100944592.83143  24651693.1884   24651699.8094
        37.9004         21.8004
 123705630.63847  96394074.45944  23540394.8834   23540399.2344
        45.2004         28.8004
 113025555.91548  88071837.22146  21508028.3444   21508032.0314
        48.1004         39.4004
 113847654.55648  88712472.42046  21664484.4614   21664487.8014
        49.8004         36.9004
 129322728.31146 100770920.16943  24609283.2814   24609288.6054
        41.4004         21.7004
 109222921.46748  85108846.54346  20784439.9224   20784444.3134
        51.7004         40.7004
 111110111.86048  86579356.45346  21143538.1024   21143542.5514
        48.8004         38.6004
 10  5 10  0 27  0.0000000  0  9G03G19G24G16G07G23G08G13G06
 105894591.19148  82515324.03046  20151057.0704   20151061.6764
        49.9004         41.6004
 108944697.10648  84892114.74146  20731497.3524   20731499.8914
        50.0004         41.9004
 129543111.54947 100942718.36344  24651235.1334   24651242.0704
        42.2004         26.0004
 123792803.60747  96462001.39344  23556984.1644   23556988.3014
        45.9004         29.0004
 112955156.06448  88016980.22246  21494631.3914   21494635.4064
        48.8004         39.3004
 113936756.67848  88781902.58446  21681439.8204   21681442.9774
        50.1004         37.5004
 129223865.84146 100693884.51443  24590470.5314   24590476.7074
        40.9004         22.6004
 109268606.75048  85144445.44146  20793133.7194   20793137.7234
        50.2004         40.9004
 111155674.85448  86614860.08346  21152208.5704   21152212.8204
        49.2004         38.1004
 10  5 10  0 27 30.0000000  0  9G03G19G24G16G07G23G08G13G06
 105915256.92848  82531427.21046  20154989.4774   20154994.2154
        50.4004         41.8004
 108896941.96748  84854902.96946  20722409.7584   20722412.0434
        49.5004         41.7004
 129541214.96946 100941240.56743  24650873.4144   24650881.1174
        40.7004         23.6004
 123880011.19947  96529955.33044  23573578.6644   23573582.8484
        46.0004         29.5004
 112884982.00448  87962299.15146  21481277.7974   21481281.9924
        48.4004         39.0004
 114026244.30448  88851633.15146  21698468.9384   21698471.5044
        49.5004         36.8004
 129124969.23646 100616822.25043  24571651.3674   24571656.4654
        41.1004         23.0004
 109314880.16648  85180502.61546  20801939.0704   20801943.3014
        49.9004         40.8004
 111201722.58148  86650741.42446  21160970.8284   21160975.3834
        48.7004         38.3004
 10  5 10  0 28  0.0000000  0  9G03G19G24G16G07G23G08G13G06
 105936534.27348  82548006.96646  20159038.5004   20159043.3244
        49.0004         41.5004
 108849749.21348  84818129.41947  20713429.3754   20713431.7384
        49.5004         42.1004
 129539828.00246 100940159.82443  24650610.5474   24650617.0554
        36.1004         22.2004
 123967252.58847  96597935.60344  23590180.7814   23590184.4104
        45.5004         29.4004
 112815035.40947  87907795.32646  21467967.4844   21467971.3404
        47.2004         39.2004
 114116114.31448  88921661.67046  21715570.9534   21715574.3134
        50.5004         37.1004
 129026039.23046 100539733.96343  24552825.3364   24552830.7734
        41.2004         22.6004
 109361739.82948  85217016.63046  20810856.3054   20810860.4454
        49.5004         40.2004
 111248253.17247  86686999.02946  21169825.6254   21169830.1724
        47.9004         38.1004
 10  5 10  0 28 30.0000000  0  9G03G19G24G16G07G23G08G13G06
 105958423.39748  82565063.41846  20163204.0634   20163208.4964
        49.8004         41.7004
 108803121.46348  84781796.13147  20704556.0084   20704558.3914
        49.3004         42.2004
 129538952.44646 100939477.56843  24650444.3444   24650449.3834
        38.7004         19.6004
 124054527.85947  96665942.29044  23606788.2814   23606793.1524
        45.0004         27.5004
 112745319.17447  87853470.99846  21454700.6954   21454705.2074
        46.3004         39.2004
 114206364.95548  88991986.78746  21732745.3754   21732748.0944
        50.4004         37.5004
 128927077.93246 100462621.29243  24533993.3444   24533998.9184
        41.1004         22.6004
 109409185.05848  85253986.89746  20819884.9064   20819888.8284
        49.4004         40.2004
 111295265.58748  86723632.08246  21178771.5634   21178776.1684
        48.4004         38.3004
 10  5 10  0 29  0.0000000  0  9G03G19G24G16G07G23G08G13G06
 105980921.51448  82582594.41846  20167485.3444   20167490.1214
        49.9004         41.7004
 108757058.66648  84745903.06247  20695790.7584   20695793.2304
        49.9004         42.0004
 129538587.65446 100939193.34443  24650374.4304   24650380.0204
        40.3004         22.2004
 124141835.12047  96733973.88244  23623402.7424   23623407.0664
        43.6004         28.0004
 112675834.06447  87799326.77646  21441477.7274   21441482.3984
        46.9004         38.9004
 114296992.12548  89062605.31646  21749990.9924   21749993.4104
        50.8004         36.9004
 128828085.11846 100385484.08843  24515156.2504   24515160.5594
        40.1004         22.6004
 109457213.13748  85291411.34946  20829024.7114   20829028.6564
        50.7004         40.3004
 111342756.96848  86760638.34346  21187809.0634   21187813.1764
        48.8004         38.1004
 10  5 10  0 29 30.0000000  0  9G03G19G24G16G07G23G08G13G06
 106004028.80548  82600600.09746  20171882.0234   20171887.1254
        48.9004         41.5004
 108711563.87248  84710452.59447  20687133.7424   20687135.6174
        49.3004         42.2004
 129538735.57846 100939308.66743  24650402.1564   24650408.3594
        40.5004         22.2004
 124229174.23747  96802030.31444  23640022.7274   23640026.3834
        45.1004         28.2004
 112606583.29547  87745365.15046  21428300.2194   21428304.2464
        46.4004         39.4004
 114387994.33548  89133516.07246  21767308.4454   21767310.6804
        51.6004         36.6004
 128729063.14846 100308324.10943  24496312.7894   24496317.5234
        40.4004         22.9004
 109505823.61248  85329289.62346  20838275.0864   20838278.9184
        50.8004         40.5004
 111390726.44548  86798017.14746  21196937.7734   21196942.0944
        48.6004         38.3004
 10  5 10  0 30  0.0000000  0  9G03G19G24G16G07G23G08G13G06
 106027743.02348  82619078.70347  20176395.2814   20176400.1454
        50.9004         42.0004
 108666637.35948  84675444.94947  20678584.1804   20678586.4694
        49.3004         42.2004
 129539395.95446 100939823.21943  24650527.1484   24650535.4494
        39.4004         22.9004
 124316543.74347  96870110.41344  23656648.1564   23656651.3164
        42.5004         25.6004
 112537567.89847  87691586.93146  21415167.0004   21415171.0124
        46.1004         39.4004
 114479367.94048  89204716.23946  21784695.8134   21784698.7704
        50.9004         36.6004
 128630012.88347 100231142.07944  24477463.8364   24477469.2974
        42.0004         24.6004
 109555013.92248  85367619.71246  20847635.6334   20847639.4024
        50.3004         40.9004
 111439171.82148  86835766.77046  21206156.5004   21206160.8324
        48.5004         38.3004
 10  5 10  0 30 30.0000000  0  9G03G19G24G16G07G23G08G13G06
 106052062.77548  82638029.16047  20181022.8984   20181027.7894
        50.4004         42.1004
 108622280.59148  84640881.26147  20670143.2814   20670145.5554
        48.6004         42.2004
 129540569.63246 100940737.77243  24650751.2584   24650757.7704
        37.1004         21.3004
 124403943.16047  96938213.79944  23673279.7274   23673283.4024
        43.9004         27.1004
 112468790.49047  87637994.16746  21402078.8984   21402083.1884
        46.0004         38.8004
 114571110.07548  89276203.56246  21802154.1724   21802156.4924
        50.8004         36.8004
 128530935.78547 100153939.16544  24458609.9224   24458615.4964
        42.0004         25.3004
 109604782.84948  85406400.67146  20857106.3284   20857110.0554
        50.4004         40.5004
 111488091.13648  86873885.72546  21215465.7504   21215469.8164
        48.8004         38.3004
 10  5 10  0 31  0.0000000  0  9G03G19G24G16G07G23G08G13G06
 106076987.71948  82657451.19946  20185766.4924   20185770.7114
        50.3004         41.4004
 108578495.12948  84606762.72846  20661811.2974   20661813.6294
        48.7004         41.7004
 129542257.48846 100942052.98243  24651072.3834   24651078.7934
        39.6004         21.8004
 124491371.47947  97006339.71144  23689917.0784   23689920.9964
        42.4004         26.5004
 112400252.67148  87584588.09446  21389036.6724   21389040.5634
        48.7004         39.0004
 114663218.17648  89347976.06546  21819681.5474   21819684.3134
        50.6004         37.0004
 128431833.10547 100076716.32344  24439751.2894   24439757.3754
        43.1004         26.2004
 109655129.08048  85445631.47846  20866686.5234   20866690.5394
        51.4004         41.1004
 111537483.02048  86912372.90746  21224864.3204   21224868.4694
        49.1004         38.3004
 10  5 10  0 31 30.0000000  0  9G03G19G24G16G07G23G08G13G06
 106102514.90348  82677342.49946  20190624.0634   20190628.5084
        50.0004         41.4004
 108535281.14448  84573089.51747  20653588.0944   20653590.0634
        49.7004         42.4004
 129544459.01646 100943768.51243  24651491.2814   24651496.8204
        40.6004         20.1004
 124578827.06947  97074486.91544  23706559.2734   23706563.2034
        42.8004         24.6004
 112331955.10648  87531369.21946  21376040.4064   21376044.2624
        48.7004         39.7004
 114755687.87648  89420030.31246  21837277.9304   21837280.8954
        50.2004         36.9004
 128332704.77347  99999473.45244  24420887.9224   24420893.4734
        43.2004         25.7004
 109706048.76148  85485309.12746  20876376.4614   20876380.7664
        51.5004         40.6004
 111587343.94148  86951225.56946  21234352.5944   21234357.1684
        48.4004         38.6004
 10  5 10  0 32  0.0000000  0  9G03G19G24G16G07G23G08G13G06
 106128644.12548  82697702.93446  20195595.9384   20195600.6214
        50.7004         41.2004
 108492640.91548  84539863.38847  20645473.9774   20645476.0434
        48.8004         42.3004
