     2.10           OBSERVATION DATA    G (GPS)             RINEX VERSION / TYPE
teqc  2000Jul20     Gordon Adams        20040501 22:00:40UTCPGM / RUN BY / DATE
Solaris 2.7|Ultra 2|cc SC5.0|=+-|*Sparc                     COMMENT
teqc  2002Mar14     CORS-ADM Account    20031030 01:40:42UTCCOMMENT
teqc  2002Mar14     GRD/NGS/NOAA        20031030 01:40:01UTCCOMMENT
BIT 2 OF LLI FLAGS DATA COLLECTED UNDER A/S CONDITION       COMMENT
1LSU                                                        MARKER NAME
                                                            MARKER NUMBER
G. Sella            Louisiana State U                       OBSERVER / AGENCY
2200252004          ASHTECH UZ-12       CN00                REC # / TYPE / VERS
620024327           ASH701945E_M    SCIS                    ANT # / TYPE
  -113374.6359 -5504367.8492  3209407.0501                  APPROX POSITION XYZ
        0.0000        0.0000        0.0000                  ANTENNA: DELTA H/E/N
     1     1                                                WAVELENGTH FACT L1/2
     5    C1    L1    L2    P1    P2                        # / TYPES OF OBSERV
    30.0000                                                 INTERVAL
Version: Version:                                           COMMENT
Project: A__________________________252004_                 COMMENT
 SNR is mapped to RINEX snr flag value [0-9]                COMMENT
  L1 & L2: >= 48 dBHz = 9; 0 dBHz = 0; else 1 + dBHz/6      COMMENT
Forced Modulo Decimation to 30 seconds                      COMMENT
Forced Modulo Decimation to 30 seconds                      COMMENT
  2003    10    29     0     0    0.0000000     GPS         TIME OF FIRST OBS
                                                            END OF HEADER
 03 10 29  0  0  0.0000000  0 10G 7G29G11G26G 8G 4G28G20G27G 9
  20930738.1234  -19069533.54449 -14830309.45249  20930737.7184   20930744.6524
  25016253.5174   -3738808.19747  -2891607.27446  25016256.5504   25016268.2754
  23562244.2814   -7638684.48748  -5830640.50247  23562244.9684   23562251.2344
  25121682.2374     632152.57048    506855.80347  25121682.7614   25121693.9864
  21559560.2294  -19667152.38249 -15295487.20448  21559559.3434   21559567.1894
  22033213.7454  -17122967.00749 -13270126.27148  22033213.9104   22033221.8484
  20590784.0094  -25827520.86149 -20106014.08449  20590783.5754   20590788.3144
  24196653.3714   -6671940.15848  -5108728.56447  24196653.4684   24196660.1164
  23571136.0204  -10192100.12148  -7920959.95147  23571135.3644   23571146.7984
  24643870.8384   -3237819.48148  -2352736.32547  24643870.7504   24643883.5184
 03 10 29  0  0 30.0000000  0 10G 7G29G11G26G 8G 4G28G20G27G 9
  20929998.6974  -19073419.18749 -14833337.18949  20929997.8164   20930004.8604
  25026502.8334   -3684952.36847  -2849641.81846  25026502.0224   25026517.0904
  23579854.9874   -7546141.65848  -5758529.18947  23579855.4164   23579861.2014
  25131603.9464     684291.56747    547483.55146  25131604.4174   25131617.2344
  21577431.1134  -19573240.21349 -15222308.90648  21577430.5004   21577437.2454
  22014947.5084  -17218958.11749 -13344924.36948  22014947.4804   22014955.5254
  20588934.2824  -25837240.78549 -20113588.01449  20588933.8314   20588939.0074
  24188720.2704   -6713629.67648  -5141213.77847  24188719.2774   24188725.8754
  23592527.3034  -10079696.27948  -7833372.61347  23592526.6214   23592536.0384
  24626318.5994   -3330056.75948  -2424609.29847  24626317.7524   24626329.9434
 03 10 29  0  1  0.0000000  0 10G 7G29G11G26G 8G 4G28G20G27G 9
  20929291.9624  -19077131.87849 -14836230.15649  20929291.4644   20929298.0914
  25036774.9144   -3630977.43448  -2807583.61346  25036775.3744   25036790.9244
  23597508.3344   -7453379.51748  -5686246.99647  23597506.8214   23597512.8384
  25141569.6064     736659.34248    588289.49946  25141568.9874   25141584.4444
  21595367.5684  -19478981.58849 -15148860.64648  21595367.6224   21595374.6724
  21996742.1194  -17314626.30749 -13419470.83548  21996742.5254   21996750.1584
  20587140.7234  -25846665.32249 -20120931.77549  20587140.3924   20587145.4624
  24180850.6294   -6754979.72148  -5173434.44747  24180849.3844   24180857.2774
  23613931.4074   -9967212.85248  -7745723.27347  23613931.1984   23613942.8454
  24608821.3594   -3422003.48747  -2496255.93846  24608821.8414   24608832.1184
 03 10 29  0  1 30.0000000  0 10G 7G29G11G26G 8G 4G28G20G27G 9
  20928619.2204  -19080668.43349 -14838985.88349  20928618.7664   20928625.3294
  25047069.4944   -3576881.83547  -2765431.32346  25047067.7404   25047082.2824
  23615201.8814   -7360396.55648  -5613792.74147  23615201.5974   23615208.0924
  25151577.9154     789256.94247    629274.58446  25151578.0464   25151595.6584
  21613370.2594  -19384375.37249 -15075141.53648  21613370.1574   21613377.4824
  21978599.3644  -17409965.18349 -13493760.70748  21978599.7074   21978607.6174
  20585404.7714  -25855788.90149 -20128041.02049  20585404.2974   20585408.8524
  24173047.8024   -6795983.93248  -5205385.63647  24173047.4754   24173054.6124
  23635351.3064   -9854648.80348  -7658011.10747  23635350.2944   23635362.5844
  24591379.9234   -3513652.86448  -2567670.77047  24591380.8354   24591392.9704
 03 10 29  0  2  0.0000000  0 10G 7G29G11G26G 8G 4G28G20G27G 9
  20927978.3514  -19084036.50149 -14841610.31449  20927977.9674   20927984.1704
  25057384.5784    5929844.77057   4642407.46656  25057381.9924   25057399.7604
  23632935.7044   -7267201.88648  -5541173.51447  23632935.9524   23632941.5454
  25161630.3294     842075.26648    670431.61146  25161631.7924   25161642.8404
  21631437.3874  -19289431.28349 -15001159.14448  21631436.7784   21631445.0944
  21960518.8064  -17504978.55049 -13567796.94148  21960519.7054   21960527.0224
  20583724.6154  -25864616.78649 -20134919.85349  20583724.7114   20583729.1134
  24165309.2994   -6836646.35948  -5237070.51447  24165309.8024   24165316.9264
  23656784.9194   -9742013.51348  -7570243.42047  23656784.6964   23656795.4294
  24573995.0004   -3605008.85547  -2638856.97247  24573997.1074   24574004.0204
 03 10 29  0  2 30.0000000  0 10G 7G29G11G26G 8G 4G28G20G27G 9
  20927369.7904  -19087232.85449 -14844100.93449  20927369.3094   20927375.9294
  25067718.0784    5984163.75557   4684733.76956  25067720.9354   25067736.6144
  23650710.6694   -7173793.69048  -5468387.89647  23650710.0924   23650716.9084
  25171723.7794     895115.45048    711761.54446  25171724.7924   25171737.6304
  21649569.7064  -19194147.66449 -14926912.19248  21649568.8194   21649576.7044
  21942501.8054  -17599659.65049 -13641574.26948  21942502.3094   21942508.9794
  20582102.0934  -25873143.14949 -20141563.72949  20582101.7904   20582106.5234
  24157638.6684   -6876960.20148  -5268483.76547  24157638.2184   24157644.9634
  23678233.3814   -9629305.41948  -7482419.00647  23678232.0954   23678245.1124
  24556669.4224   -3696064.72848  -2709809.50047  24556669.6934   24556681.6074
 03 10 29  0  3  0.0000000  0 10G 7G29G11G26G 8G 4G28G20G27G 9
  20926794.1234  -19090257.23849 -14846457.55949  20926793.5854   20926800.3404
  25078077.9184    6038593.29347   4727146.25046  25078077.4654   25078090.6264
  23668526.1044   -7080173.50448  -5395437.07747  23668526.4574   23668530.2564
  25181858.1844     948375.90248    753263.10146  25181858.5574   25181872.0814
  21667765.7224  -19098526.79149 -14852402.43848  21667765.1564   21667772.6904
  21924548.3754  -17694004.93249 -13715089.92448  21924548.8774   21924556.2784
  20580537.1724  -25881365.79849 -20147970.94749  20580537.2304   20580541.8384
  24150033.7014   -6916921.89148  -5299622.62247  24150032.6024   24150040.4064
  23699694.7814   -9516526.39648  -7394539.30247  23699693.5364   23699705.1864
  24539397.5754   -3786816.78448  -2780525.11647  24539399.1984   24539409.3394
 03 10 29  0  3 30.0000000  0 10G 7G29G11G26G 8G 4G28G20G27G 9
  20926250.8334  -19093111.89249 -14848681.92449  20926250.2894   20926257.0674
  25088455.9314    6093129.75647   4769642.06446  25088457.0474   25088471.8054
  23686381.7164   -6986344.92548  -5322323.87847  23686380.3664   23686386.9614
  25192034.5314    1001852.65348    794933.23446  25192036.2184   25192045.7014
  21686025.3514  -19002572.55349 -14777632.92048  21686025.0894   21686032.0624
  21906659.4174  -17788012.95549 -13788342.77948  21906659.8744   21906666.4754
  20579030.3954  -25889283.95849 -20154140.90449  20579030.0584   20579034.8534
  24142495.9934   -6956530.23648  -5330486.14647  24142495.2884   24142502.1814
  23721167.5204   -9403680.51648  -7306607.53047  23721168.5954   23721179.1684
  24522188.3064   -3877263.51048  -2851002.89347  24522187.9024   24522197.7824
 03 10 29  0  4  0.0000000  0 10G 7G29G11G26G 8G 4G28G20G27G 9
  20925740.0684  -19095797.05249 -14850774.21849  20925739.5964   20925746.1854
  25098855.8364    6147770.81847   4812219.30746  25098854.3234   25098866.5444
  23704275.2024   -6892309.64848  -5249049.62947  23704274.5864   23704279.7874
  25202250.5064    1055543.51447    836770.18646  25202252.0834   25202261.8594
  21704347.8354  -18906287.34449 -14702605.51248  21704347.3424   21704355.6744
  21888834.2694  -17881680.44949 -13861330.29448  21888834.9894   21888842.8844
  20577581.9004  -25896895.75249 -20160072.12649  20577581.8964   20577586.5144
  24135026.7874   -6995781.85848  -5361071.70047  24135027.5194   24135034.2894
  23742654.0334   -9290769.92148  -7218625.30047  23742654.2354   23742666.2244
  24505033.8334   -3967401.49248  -2921240.21347  24505034.1454   24505043.9764
 03 10 29  0  4 30.0000000  0 10G 7G29G11G26G 8G 4G28G20G27G 9
  20925260.4904  -19098316.34949 -14852737.26349  20925260.0764   20925266.5424
  25109269.8674    6202510.52047   4854873.47346  25109273.3214   25109284.3644
  23722208.2664   -6798072.91248  -5175618.36647  23722206.9744   23722212.4774
  25212508.3784    1109442.86848    878769.59246  25212508.6794   25212521.7204
  21722731.4274  -18809676.96949 -14627324.70948  21722731.6504   21722739.1404
  21871074.0864  -17975007.76249 -13934052.72748  21871074.6634   21871082.8674
  20576191.6494  -25904202.66449 -20165765.77749  20576191.0944   20576196.1564
  24127625.7314   -7034677.27748  -5391379.69947  24127624.7004   24127630.6984
  23764150.9944   -9177800.15048  -7130596.97447  23764150.0354   23764163.0184
  24487939.2714   -4057231.40248  -2991237.32847  24487938.5574   24487951.1454
 03 10 29  0  5  0.0000000  0 10G 7G29G11G26G 8G 4G28G20G27G 9
  20924813.6784  -19100665.88449 -14854568.02249  20924813.1564   20924819.4554
  25119707.7904    6257351.36247   4897606.44946  25119705.5844   25119722.9424
  23740178.9384   -6703632.04348  -5102028.07447  23740179.3784   23740184.9534
  25222803.8284    1163552.88148    920933.19046  25222804.2074   25222819.6834
  21741178.6934  -18712739.17149 -14551788.78448  21741179.0224   21741185.9344
  21853381.3424  -18067987.32349 -14006504.19448  21853380.8844   21853388.4554
  20574860.2514  -25911198.15649 -20171216.77149  20574860.0064   20574864.6754
  24120292.7784   -7073209.22248  -5421404.47347  24120291.7534   24120299.1374
  23785660.6644   -9064769.27648  -7042521.04047  23785660.8814   23785672.8094
  24470905.0794   -4146745.34748  -3060988.32147  24470906.9504   24470917.5584
 03 10 29  0  5 30.0000000  0 10G 7G29G11G26G 8G 4G28G20G27G 9
  20924396.9084  -19102854.22349 -14856273.17649  20924396.5604   20924402.8124
  25130159.7084    6312282.55747   4940409.87546  25130157.4604   25130177.0374
  23758188.3054   -6608997.47748  -5028286.85347  23758188.5194   23758194.7564
  25233139.3004    1217862.95047    963252.63846  25233140.2964   25233156.1344
  21759685.5954  -18615484.89349 -14476006.25048  21759685.6884   21759692.8424
  21835752.4824  -18160624.44549 -14078688.81548  21835753.3674   21835760.8274
  20573587.1414  -25917888.59349 -20176430.05149  20573586.9044   20573591.4184
  24113029.3484   -7111382.64648  -5451149.89247  24113029.1734   24113035.3814
  23807179.2894   -8951687.56347  -6954405.48947  23807178.8814   23807191.4814
  24453930.9834   -4235948.57148  -3130497.21347  24453931.6914   24453942.1204
 03 10 29  0  6  0.0000000  0 10G 7G29G11G26G 8G 4G28G20G27G 9
  20924012.3234  -19104874.61949 -14857847.46649  20924011.9444   20924018.4204
  25140632.3404    6367309.19647   4983287.60846  25140632.3184   25140645.8454
  23776233.6384   -6514163.96848  -4954390.61547  23776233.9674   23776239.9884
  25243513.3264    1272378.18247   1005731.94746  25243510.6074   25243528.5344
  21778253.7404  -18517909.10849 -14399973.18948  21778253.0554   21778260.5314
  21818191.9204  -18252908.91549 -14150598.65248  21818191.5614   21818198.8344
  20572373.6714  -25924264.60749 -20181398.32949  20572373.5854   20572378.0334
  24105833.8434   -7149187.60548  -5480608.19847  24105835.1114   24105841.5344
  23828709.0274   -8838550.23947  -6866246.63147  23828708.9774   23828719.4424
  24437018.2774   -4324830.44248  -3199755.61047  24437018.0944   24437029.3104
 03 10 29  0  6 30.0000000  0 10G 7G29G11G26G 8G 4G28G20G27G 9
  20923659.0984  -19106731.43149 -14859294.28249  20923658.7514   20923664.8884
  25151120.0094    6422424.99547   5026234.84146  25151120.6584   25151134.4424
  23794317.0074   -6419137.26748  -4880343.80947  23794316.4614   23794324.5194
  25253924.5754    1327092.10847   1048366.17446  25253927.4524   25253941.2044
  21796881.5344  -18420018.53849 -14323694.83948  21796880.6934   21796888.5394
  21800697.4284  -18344841.36049 -14222234.18148  21800697.1774   21800704.8624
  20571219.7314  -25930328.26449 -20186123.20649  20571219.6444   20571224.2064
  24098708.9824   -7186625.15148  -5509780.22947  24098710.0994   24098716.9594
  23850246.4484   -8725363.38847  -6778049.15847  23850248.5774   23850259.5684
  24420163.0864   -4413391.78148  -3268764.29647  24420164.4374   24420173.1904
 03 10 29  0  7  0.0000000  0 10G 7G29G11G26G 8G 4G28G20G27G 9
  20923336.9444  -19108425.14949 -14860614.00649  20923336.2044   20923342.7204
  25161624.2524    6477627.64557   5069249.76156  25161626.3394   25161641.6364
  23812436.3354   -6323919.87448  -4806148.42847  23812435.6024   23812443.5474
  25264374.0794    1382002.30047   1091153.26646  25264374.4554   25264388.7104
  21815569.3224  -18321815.59849 -14247173.08648  21815568.4884   21815576.3224
  21783270.9274  -18436419.15849 -14293593.36148  21783271.0694   21783278.1584
  20570125.6824  -25936077.93249 -20190603.42149  20570125.3994   20570129.9224
  24091657.0474   -7223692.41648  -5538663.74347  24091656.3664   24091661.9644
  23871794.0794   -8612129.72547  -6689815.25347  23871793.7244   23871807.9324
  24403372.5884   -4501629.75448  -3337520.96047  24403372.0564   24403384.3944
 03 10 29  0  7 30.0000000  0 10G 7G29G11G26G 8G 4G28G20G27G 9
  20923045.0014  -19109955.37749 -14861806.34049  20923044.6414   20923051.7544
  25172145.9884    6532915.00747   5112330.62746  25172142.6744   25172160.0204
  23830592.3164   -6228512.08748  -4731804.69547  23830593.2624   23830598.3774
  25274861.0804    1437107.46747   1134092.23446  25274859.9044   25274875.4904
  21834315.8184  -18223301.96449 -14170409.23448  21834315.2354   21834322.7174
  21765912.0614  -18527638.39449 -14364673.14048  21765912.7244   21765919.2164
  20569092.0664  -25941510.40449 -20194836.47449  20569091.4564   20569096.2664
  24084674.1694   -7260385.64448  -5567255.78047  24084672.6554   24084680.7974
  23893349.4124   -8498850.53247  -6601545.83947  23893351.6474   23893365.9224
  24386644.0684   -4589540.42148  -3406022.55847  24386643.4834   24386654.3994
 03 10 29  0  8  0.0000000  0  9G 7G11G26G 8G 4G28G20G27G 9
  20922779.4394  -19111351.98049 -14862894.54849  20922778.9724   20922785.5304
  23848777.4234   -6132945.80048  -4657337.44347  23848776.7244   23848783.2394
  25285377.5794    1492375.44948   1177158.17646  25285377.2394   25285390.5894
  21853115.2504  -18124509.64449 -14093428.21948  21853114.9194   21853122.5444
  21748616.8124  -18618525.65349 -14435494.23948  21748617.1954   21748624.9814
  20568113.0134  -25946653.20049 -20198843.79849  20568112.7084   20568117.5294
  24077757.9944   -7296731.47748  -5595577.12347  24077756.5544   24077763.8794
  23914909.1374   -8385557.65147  -6513265.77947  23914909.4744   23914922.2714
  24369972.0104   -4677150.15048  -3474289.64647  24369974.2164   24369982.7514
 03 10 29  0  8 30.0000000  0  9G 7G11G26G 8G 4G28G20G27G 9
  20922549.7694  -19112557.89549 -14863834.16549  20922549.6474   20922556.1464
  23867004.2354   -6037165.37248  -4582703.32047  23867003.1854   23867009.7654
  25295936.9744    1547861.66548   1220394.10847  25295937.3824   25295950.8164
  21871978.6304  -18025383.62449 -14016187.18048  21871978.0894   21871984.7344
  21731396.0274  -18709020.32949 -14506009.43048  21731396.4694   21731403.5374
  20567200.7954  -25951447.30049 -20202579.41549  20567200.4604   20567205.2194
  24070918.4334   -7332669.58248  -5623580.77047  24070918.2724   24070926.5724
  23936483.0814   -8272195.83547  -6424932.03247  23936482.7264   23936493.9144
  24353367.7864   -4764398.43248  -3542275.13747  24353368.7754   24353379.9674
 03 10 29  0  9  0.0000000  0  9G 7G11G26G 8G 4G28G20G27G 9
  20922350.2744  -19113608.21349 -14864652.54749  20922349.7244   20922356.0344
  23885264.6814   -5941207.25648  -4507930.75347  23885263.5304   23885270.1064
  25306530.6804    1603528.97848   1263771.18947  25306530.5884   25306543.8024
  21890898.1724  -17925960.73249 -13938714.80748  21890897.5694   21890904.6124
  21714244.1774  -18799154.04749 -14576243.36348  21714244.6814   21714251.5954
  20566348.2984  -25955925.09849 -20206068.56149  20566348.1674   20566352.9344
  24064151.7264   -7368231.54948  -5651291.32747  24064150.7534   24064158.4694
  23958062.3694   -8158801.87248  -6336573.21647  23958061.9634   23958072.6664
  24336829.4484   -4851316.62748  -3610003.35147  24336828.8174   24336838.0284
 03 10 29  0  9 30.0000000  0  9G 7G11G26G 8G 4G28G20G27G 9
  20922180.3644  -19114500.75649 -14865347.98549  20922179.9124   20922186.4264
  23903557.9304   -5845071.38148  -4433019.68147  23903558.7084   23903564.1794
  25317156.6894    1659377.45648   1307289.38446  25317156.4864   25317171.2974
  21909873.9334  -17826241.63049 -13861011.63748  21909872.6024   21909880.3114
  21697161.6414  -18888921.70549 -14646192.05148  21697162.2424   21697168.8204
  20565557.4954  -25960082.50349 -20209308.05349  20565557.2194   20565561.7974
  24057457.4554   -7403412.53148  -5678705.01247  24057456.0334   24057463.8724
  23979646.1874   -8045375.85148  -6248189.43147  23979645.6364   23979657.1074
  24320353.1494   -4937899.49048  -3677470.30947  24320353.2334   24320363.8694
 03 10 29  0 10  0.0000000  0  9G 7G11G26G 8G 4G28G20G27G 9
  20922042.7894  -19115222.50149 -14865910.33749  20922042.3844   20922049.2554
  23921888.3374   -5748745.89248  -4357960.85547  23921887.8914   23921893.7604
  25327821.8774    1715418.43548   1350957.68146  25327822.5514   25327836.1664
  21928907.7994  -17726215.02949 -13783068.85248  21928907.4714   21928915.0924
  21680152.6084  -18978306.65849 -14715842.52648  21680152.3514   21680159.4764
  20564830.4224  -25963903.98449 -20212285.78149  20564829.9374   20564834.7154
  24050837.5754   -7438195.92048  -5705808.89047  24050836.8904   24050843.7854
  24001238.0534   -7931906.50548  -6159771.85047  24001237.9404   24001250.9374
  24303943.7824   -5024130.57348  -3744663.11647  24303943.8064   24303953.8894
 03 10 29  0 10 30.0000000  0  9G 7G11G26G 8G 4G28G20G27G 9
  20921933.3204  -19115798.84149 -14866359.38649  20921932.7314   20921939.4034
  23940249.1734   -5652257.66048  -4282775.21547  23940249.3664   23940255.1364
  25338517.1544    1771624.40247   1394754.44646  25338518.6514   25338529.9604
  21947995.9544  -17625908.35349 -13704907.83148  21947995.2794   21948003.2384
  21663211.1394  -19067331.01849 -14785212.03148  21663211.4934   21663218.7634
  20564162.7524  -25967412.64549 -20215019.76049  20564162.4884   20564166.9804
  24044289.7274   -7472604.11848  -5732620.42647  24044289.9244   24044296.1484
  24022834.6094   -7818421.07648  -6071341.74347  24022835.8894   24022846.6184
  24287596.5464   -5110031.59348  -3811598.75647  24287597.0394   24287607.8864
 03 10 29  0 11  0.0000000  0  9G 7G11G26G 8G 4G28G20G27G 9
  20921853.3754  -19116218.03449 -14866685.99349  20921852.8654   20921859.7144
  23958642.8134   -5555596.38948  -4207454.73047  23958642.9794   23958649.9604
  25349246.1594    1828005.37647   1438687.66046  25349247.5244   25349258.1964
  21967138.6544  -17525312.03849 -13626521.10048  21967138.2714   21967146.5014
  21646341.6444  -19155979.64649 -14854288.75048  21646342.0834   21646349.1094
  20563557.0394  -25970594.30549 -20217498.93249  20563556.8684   20563561.3514
  24037816.9784   -7506621.87148  -5759127.71847  24037816.1664   24037822.1654
  24044434.1284   -7704909.49748  -5982891.29047  24044433.7514   24044444.4004
  24271314.7014   -5195587.47248  -3878265.46547  24271315.6924   24271326.3854
 03 10 29  0 11 30.0000000  0  9G 7G11G26G 8G 4G28G20G27G 9
  20921802.9014  -19116482.62449 -14866892.12149  20921802.3214   20921808.8184
  23977069.9364   -5458766.38248  -4132002.77247  23977068.9634   23977076.1194
  25360007.2004    1884556.60247   1482753.48946  25360008.2094   25360022.5104
  21986335.7104  -17424430.73049 -13547912.30548  21986335.2804   21986342.9904
  21629544.1694  -19244251.94449 -14923072.23048  21629544.3374   21629551.3474
  20563013.9484  -25973449.47349 -20219723.69249  20563013.5394   20563017.8424
  24031417.0534   -7540248.72248  -5785330.40947  24031416.9934   24031422.6394
  24066039.1814   -7591376.41148  -5894424.01547  24066039.0474   24066051.5304
  24255101.4674   -5280797.14648  -3944662.42547  24255100.2524   24255113.1974
 03 10 29  0 12  0.0000000  0  9G 7G11G26G 8G 4G28G20G27G 9
  20921781.6624  -19116592.39749 -14866977.60849  20921781.3904   20921788.3804
  23995528.7094   -5361768.67648  -4056420.11947  23995527.7854   23995533.8184
  25370802.2854    1941276.47347   1526950.71946  25370801.4184   25370816.3864
  22005586.8624  -17323266.44849 -13469083.02148  22005585.9334   22005594.6564
  21612818.8594  -19332144.38949 -14991559.72848  21612819.3334   21612825.9574
  20562533.0644  -25975975.42149 -20221691.91749  20562532.6234   20562537.4504
  24025093.8274   -7573481.40048  -5811225.95347  24025094.1564   24025099.2314
  24087647.8324   -7477823.36748  -5805941.22447  24087647.2924   24087658.3464
  24238951.1704   -5365657.03348  -4010786.77147  24238951.4354   24238963.7674
 03 10 29  0 12 30.0000000  0  9G 7G11G26G 8G 4G28G20G27G 9
  20921789.5084  -19116551.05949 -14866945.34849  20921789.1614   20921796.0224
  24014017.4944   -5264608.45948  -3980710.85647  24014017.5044   24014021.8864
  25381624.5774    1998159.19447   1571274.89846  25381624.4594   25381642.0634
  22024889.9414  -17221825.05949 -13390037.80248  22024889.8604   22024897.5794
  21596165.4814  -19419657.28849 -15059751.46148  21596165.5674   21596172.7304
  20562114.8134  -25978173.61549 -20223404.75749  20562114.6404   20562119.1994
  24018844.8224   -7606320.22048  -5836814.58747  24018843.7404   24018850.2554
  24109259.1144   -7364255.98648  -5717447.24747  24109259.3314   24109269.7434
  24222871.3934   -5450167.45548  -4076638.86747  24222870.9734   24222881.0574
 03 10 29  0 13  0.0000000  0  9G 7G11G26G 8G 4G28G20G27G 9
  20921827.2444  -19116355.94449 -14866793.26349  20921826.5194   20921833.1494
  24032536.3944   -5167284.99548  -3904874.38247  24032537.4044   24032542.8384
  25392482.0244    2055205.40447   1615726.45446  25392480.4894   25392495.4064
  22044247.1524  -17120106.21049 -13310776.37848  22044246.4174   22044254.1624
  21579585.5524  -19506784.90349 -15127642.98148  21579585.8894   21579593.1284
  20561760.2194  -25980039.31149 -20224858.50549  20561759.7114   20561764.0074
  24012671.1124   -7638759.77648  -5862092.11047  24012670.1984   24012676.3834
  24130872.7674   -7250673.55448  -5628941.62147  24130872.8344   24130883.0324
  24206856.1964   -5534322.54848  -4142214.05247  24206855.7244   24206865.9994
 03 10 29  0 13 30.0000000  0  8G 7G11G 8G 4G28G20G27G 9
  20921892.7514  -19116009.88649 -14866523.56249  20921892.5074   20921899.0964
  24051086.8654   -5069802.42548  -3828913.91947  24051086.0814   24051093.2004
  22063655.7054  -17018114.78949 -13231302.56548  22063655.0564   22063662.6394
  21563079.2914  -19593526.77449 -15195233.91148  21563079.1014   21563085.7544
  20561467.9924  -25981572.96549 -20226053.51649  20561467.4454   20561472.1294
  24006574.9614   -7670799.56048  -5887058.13147  24006574.3894   24006579.9414
  24152489.4104   -7137080.78348  -5540427.90647  24152490.1234   24152501.9044
  24190910.0854   -5618121.64148  -4207511.88447  24190910.1154   24190920.3014
 03 10 29  0 14  0.0000000  0  9G 7G11G 8G24G 4G28G20G27G 9
  20921987.4274  -19115511.05749 -14866134.81649  20921987.0534   20921993.8854
  24069667.9844   -4972160.51748  -3752829.32047  24069668.5054   24069673.9514
  22083116.3864  -16915851.12849 -13151616.61748  22083115.1904   22083122.7934
  25001194.0704   -2790055.84348  -2169200.36046  25001191.4404   25001207.9364
  21546647.0904  -19679877.80149 -15262520.29548  21546647.0914   21546654.1654
  20561239.9844  -25982770.61849 -20226986.70649  20561239.3774   20561244.0924
  24000553.2694   -7702434.88348  -5911708.97747  24000554.6594   24000560.9414
  24174107.6124   -7023477.65847  -5451906.17347  24174107.2404   24174118.0874
  24175032.5944   -5701559.60848  -4272528.28547  24175031.2314   24175043.2104
 03 10 29  0 14 30.0000000  0  9G 7G11G 8G24G 4G28G20G27G 9
  20922110.8554  -19114862.87749 -14865629.69349  20922110.4924   20922117.0054
  24088277.6944   -4874364.15148  -3676624.36147  24088277.9644   24088284.1854
  22102626.6494  -16813320.83849 -13071722.91348  22102625.6114   22102633.1244
  24980165.8544   -2900555.62848  -2255303.61046  24980166.3884   24980181.4514
  21530289.7644  -19765838.38749 -15329502.44148  21530288.9924   21530296.0174
  20561075.7874  -25983633.41749 -20227658.97549  20561075.2394   20561079.9014
  23994610.8694   -7733665.88848  -5936044.75647  23994610.1684   23994617.7094
  24195726.7384   -6909869.60247  -5363380.58247  24195727.1004   24195738.7154
  24159221.6364   -5784636.18448  -4337263.10047  24159222.1674   24159233.8064
 03 10 29  0 15  0.0000000  0  9G 7G11G 8G24G 4G28G20G27G 9
  20922262.7214  -19114065.85149 -14865008.57749  20922262.1814   20922268.6084
  24106915.6594   -4776415.48048  -3600300.69847  24106915.2254   24106922.0854
  22122188.0614  -16710526.41349 -12991623.38148  22122186.8624   22122195.1634
  24959148.3904   -3011002.76948  -2341365.86846  24959149.9574   24959166.8764
  21514005.8454  -19851405.50249 -15396177.97348  21514006.8424   21514013.1484
  20560975.6884  -25984159.46549 -20228068.83749  20560975.2554   20560979.9664
  23988745.1944   -7764490.06848  -5960063.52747  23988746.1784   23988751.5544
  24217344.8744   -6796258.87447  -5274852.95147  24217346.4214   24217358.9774
  24143481.6194   -5867348.71848  -4401714.27847  24143482.4054   24143492.8784
 03 10 29  0 15 30.0000000  0  9G 7G11G 8G24G 4G28G20G27G 9
  20922442.4614  -19113120.83949 -14864272.14649  20922441.9264   20922448.4434
  24125582.5144   -4678316.90048  -3523860.24847  24125584.2444   24125588.6104
  22141797.9844  -16607471.30249 -12911320.72448  22141797.8284   22141805.2244
  24938142.6954   -3121394.99248  -2427385.37246  24938142.1204   24938157.0984
  21497798.4854  -19936577.30349 -15462545.47848  21497798.6784   21497805.4084
  20560939.7214  -25984347.63249 -20228215.42249  20560939.4954   20560944.3204
  23982957.0684   -7794905.56348  -5983763.82747  23982957.0744   23982963.0114
  24238966.5144   13797811.68457  10772474.50556  24238966.5114   24238976.6694
  24127813.2344   -5949694.84548  -4465879.89847  24127813.0794   24127823.1634
 03 10 29  0 16  0.0000000  0  9G 7G11G 8G24G 4G28G20G27G 9
  20922650.6264  -19112027.07249 -14863419.80549  20922649.9364   20922656.6094
  24144280.7214   -4580068.84048  -3447303.31547  24144279.6914   24144285.2824
  22161458.6254  -16504156.73249 -12830815.87948  22161458.2894   22161464.8114
  24917145.4684   -3231728.09248  -2513358.76046  24917142.8614   24917162.3504
  21481666.6344  -20021349.60549 -15528601.67548  21481666.7554   21481673.6624
  20560968.7394  -25984194.91949 -20228096.38249  20560968.3844   20560972.8384
  23977248.4094   -7824908.41748  -6007142.59247  23977247.2494   23977253.7254
  24260585.3944   13911421.11157  10861001.08056  24260585.9014   24260596.7924
  24112213.2594   -6031670.38848  -4529756.80047  24112213.4304   24112224.1634
 03 10 29  0 16 30.0000000  0  9G 7G11G 8G24G 4G28G20G27G 9
  20922886.6014  -19110789.28049 -14862455.23549  20922885.6754   20922891.9704
  24163001.8044   -4481677.85248  -3370635.01547  24163005.8334   24163009.4084
  22181167.5224  -16400589.56249 -12750114.20748  22181165.8054   22181173.9004
  24896159.1974   -3342003.69848  -2599287.27346  24896158.6334   24896176.3114
  21465610.7144  -20105723.99249 -15594347.81848  21465611.0854   21465617.5094
  20561062.3564  -25983703.84249 -20227713.68749  20561062.2984   20561066.2424
  23971616.6964   -7854500.25448  -6030201.08747  23971617.3024   23971621.9384
  24282202.2344   14025022.70447  10949521.54046  24282200.2944   24282213.8684
  24096684.9074   -6113276.62648  -4593345.88447  24096685.1264   24096694.4514
 03 10 29  0 17  0.0000000  0  9G 7G11G 8G24G 4G28G20G27G 9
  20923149.7644  -19109403.30249 -14861375.19149  20923149.2064   20923155.4634
  24181755.4464   -4383141.29248  -3293853.25347  24181754.5374   24181758.0724
  22200923.8714  -16296767.92049 -12669214.24948  22200922.0294   22200929.4224
  24875186.5014   -3452214.48048  -2685165.24546  24875188.0774   24875204.0304
  21449631.9974  -20189693.31249 -15659778.31948  21449631.9484   21449638.5294
  20561221.3734  -25982867.98849 -20227062.33049  20561220.9054   20561225.4794
  23966065.1024   -7883674.41648  -6052934.09647  23966065.1524   23966070.5194
  24303819.3754   14138618.85547  11038037.73947  24303819.0054   24303830.2234
  24081226.7804   -6194506.26948  -4656641.56447  24081226.6784   24081237.8214
 03 10 29  0 17 30.0000000  0  9G 7G11G 8G24G 4G28G20G27G 9
  20923440.8034  -19107874.49249 -14860183.85249  20923439.9744   20923446.5374
  24200531.4774   -4284466.07348  -3216963.45447  24200531.9034   24200536.0454
  22220727.0494  -16192699.49449 -12588121.99148  22220726.0144   22220734.2154
  24854226.7344   -3562362.89147  -2770994.56646  24854225.3814   24854243.9214
  21433729.2614  -20273259.80149 -15724894.92948  21433729.9154   21433736.3364
  20561445.6634  -25981690.55749 -20226144.80949  20561445.2854   20561449.4224
  23960591.9294   -7912432.66948  -6075343.05147  23960591.8664   23960598.1794
  24325433.9314   14252202.34947  11126544.14047  24325432.4824   24325445.1114
  24065840.3344   -6275361.29448  -4719645.28247  24065841.1684   24065850.0564
 03 10 29  0 18  0.0000000  0  9G 7G11G 8G24G 4G28G20G27G 9
  20923759.2244  -19106198.87949 -14858878.11949  20923758.7634   20923764.9764
  24219336.2864   -4185649.81748  -3139963.76147  24219336.2184   24219340.3974
  22240576.8984  -16088382.64149 -12506836.14948  22240576.3274   22240584.5644
  24833276.5124   -3672441.78248  -2856769.63947  24833279.3964   24833294.4794
  21417905.3464  -20356416.46949 -15789692.19848  21417905.3574   21417911.7854
  20561735.7254  -25980165.47849 -20224956.39549  20561735.1794   20561739.7294
  23955200.4334   -7940768.64148  -6097422.94747  23955200.3074   23955206.0364
  24347046.2474   14365775.05948  11215042.11147  24347046.8524   24347059.2004
  24050524.3674   -6355834.48648  -4782351.57247  24050526.3184   24050537.7534
 03 10 29  0 18 30.0000000  0  9G 7G11G 8G24G 4G28G20G27G 9
  20924104.9004  -19104379.48949 -14857460.36049  20924104.7664   20924111.3704
  24238166.9224   -4086696.89448  -3062857.57147  24238166.4734   24238171.3854
  22260474.6904  -15983822.38449 -12425360.64448  22260474.6064   22260481.3994
  24812342.2254   -3782451.24747  -2942490.68147  24812342.2924   24812358.3654
  21402158.1304  -20439163.23249 -15854170.06248  21402159.5174   21402165.4304
  20562091.7774  -25978293.65749 -20223497.79749  20562091.0944   20562095.7494
  23949889.5054   -7968682.30048  -6119173.77047  23949888.2284   23949894.4554
  24368654.6194   14479332.29948  11303528.03147  24368655.6134   24368665.3994
  24035286.3074   -6435925.80948  -4844760.16847  24035286.4094   24035295.3614
 03 10 29  0 19  0.0000000  0  9G 7G11G 8G24G 4G28G20G27G 9
  20924477.7974  -19102423.38749 -14855936.07049  20924477.1264   20924483.7014
  24257020.3264   -3987615.84948  -2985651.55047  24257021.1224   24257025.2354
  22280416.3824  -15879028.27249 -12343702.92548  22280416.1934   22280422.9994
  24791418.5264   -3892395.09247  -3028160.63747  24791419.4104   24791436.4734
  21386489.9234  -20521504.09349 -15918331.64948  21386489.7454   21386495.9084
  20562512.8584  -25976080.06049 -20221772.87949  20562512.5274   20562516.8674
  23944655.7514   -7996177.96448  -6140598.88647  23944656.0224   23944662.6724
  24390260.6354   14592864.95348  11391994.79347  24390259.1264   24390273.5464
  24020116.0874   -6515639.03348  -4906874.23947  24020116.0314   24020125.3164
 03 10 29  0 19 30.0000000  0  9G 7G11G 8G24G 4G28G20G27G 9
  20924878.1404  -19100318.78749 -14854296.06449  20924877.5714   20924884.2084
  24275900.6054   -3888396.60248  -2908337.82047  24275900.5654   24275906.2604
  22300404.6394  -15773990.57749 -12261855.39748  22300404.5404   22300411.9544
  24770513.4534   -4002258.18947  -3113767.62247  24770515.9474   24770531.4354
  21370900.6374  -20603424.15949 -15982165.33848  21370900.8044   21370907.3654
  20563001.7384  -25973510.64649 -20219770.69949  20563001.3014   20563005.9104
  23939506.1624   -8023241.09348  -6161686.97547  23939505.6884   23939512.0794
  24411863.4514   14706383.11848  11480450.28047  24411861.4794   24411872.3624
  24005022.9934   -6594959.03048  -4968681.86347  24005022.6454   24005032.4954
 03 10 29  0 20  0.0000000  0  9G 7G11G 8G24G 4G28G20G27G 9
  20925304.6204  -19098076.38449 -14852548.67949  20925304.4854   20925311.0374
  24294806.3024   -3789051.25748  -2830925.83547  24294805.8844   24294809.8904
  22320436.9184  -15668722.27349 -12179828.18248  22320436.8194   22320442.6424
  24749620.9574   -4112048.19547  -3199317.73746  24749622.6674   24749637.7984
  21355390.5554  -20684931.37049 -16045677.33348  21355390.6114   21355397.0124
  20563556.6574  -25970594.22649 -20217498.13049  20563556.3424   20563561.0334
  23934437.2094   -8049879.35648  -6182443.98747  23934436.0294   23934442.9164
  24433459.4544   14819874.13848  11568884.56647  24433459.6604   24433471.0854
  23990002.3484   -6673893.18848  -5030188.78547  23990001.1784   23990010.3554
 03 10 29  0 20 30.0000000  0  9G 7G11G 8G24G 4G28G20G27G 9
  20925758.1094  -19095694.83449 -14850692.87049  20925757.5884   20925763.9544
  24313734.4324   -3689579.93348  -2753415.66847  24313733.7064   24313738.7424
  22340512.3294  -15563224.37949 -12097622.05548  22340511.7404   22340519.7924
  24728742.6344   -4221760.55347  -3284807.33546  24728742.0984   24728761.1304
  21339959.8934  -20766021.03849 -16108863.96948  21339960.0074   21339965.7824
  20564178.2634  -25967327.20049 -20214952.35649  20564177.8704   20564182.3754
  23929448.3924   -8076088.54048  -6202866.64447  23929448.4464   23929454.8564
  24455051.1604   14933337.76148  11657297.57446  24455052.3494   24455062.0854
  23975054.7964   -6752436.81648  -5091391.47847  23975055.1904   23975065.8024
 03 10 29  0 21  0.0000000  0  9G 7G11G 8G24G 4G28G20G27G 9
  20926239.0644  -19093169.04249 -14848724.66649  20926238.6424   20926244.3104
  24332688.3134   -3589979.24748  -2675804.71647  24332687.6954   24332691.8304
  22360631.7604  -15457494.21549 -12015234.95448  22360631.8144   22360638.7184
  24707882.6534   -4331387.39547  -3370230.36647  24707882.2184   24707896.7214
  21324609.5294  -20846685.55349 -16171719.32448  21324609.7464   21324615.9934
  20564868.0994  -25963702.50049 -20212127.88549  20564867.6044   20564872.3244
  23924544.6944   -8101861.23248  -6222949.20847  23924545.1454   23924550.7164
  24476637.2844   15046776.87148  11745691.46146  24476636.9644   24476650.4094
  23960183.1794   -6830582.14648  -5152283.72847  23960184.2644   23960193.8654
 03 10 29  0 21 30.0000000  0  9G 7G11G 8G24G 4G28G20G27G 9
  20926745.4944  -19090507.28249 -14846650.51249  20926744.9804   20926751.1084
  24351663.5314   -3490259.03848  -2598100.61047  24351664.2724   24351668.1744
  22380794.5134  -15351542.00549 -11932674.82948  22380792.4624   22380802.1264
  24687036.1554   -4440933.55848  -3455590.62247  24687036.9824   24687050.6514
  21309339.6384  -20926929.77049 -16234247.17448  21309339.6494   21309346.3254
  20565624.8024  -25959726.23749 -20209029.46749  20565624.2454   20565628.8314
  23919722.4924   -8127202.49948  -6242695.59347  23919721.3844   23919727.2374
  24498217.0454   15160181.59448  11834058.52346  24498218.7184   24498229.0544
  23945387.2684   -6908333.99248  -5212869.44347  23945387.4424   23945397.4364
 03 10 29  0 22  0.0000000  0  9G 7G11G 8G24G 4G28G20G27G 9
  20927277.8414  -19087708.34149 -14844469.47249  20927277.4174   20927283.4724
  24370663.8914   -3390419.31148  -2520303.39047  24370663.1234   24370668.0364
  22400998.5834  -15245369.03649 -11849942.68148  22400997.4504   22401004.5164
  24666204.6994   -4550394.66547  -3540884.60847  24666203.8384   24666222.4364
  21294149.9744  -21006749.88749 -16296444.55648  21294150.4204   21294156.2034
  20566448.3884  -25955395.27949 -20205654.66449  20566448.4674   20566452.9894
  23914983.0474   -8152108.58148  -6262102.87647  23914981.4434   23914988.6444
  24519791.3684   15273551.14147  11922398.29646  24519792.3664   24519803.8744
  23930668.2254   -6985687.92448  -5273145.04347  23930667.8844   23930677.7814
 03 10 29  0 22 30.0000000  0  8G 7G11G 8G24G 4G28G20G 9
  20927836.8584  -19084772.05949 -14842181.40349  20927836.0144   20927842.2904
  24389684.5244   -3290461.66148  -2442414.24947  24389683.4204   24389689.3844
  22421243.3434  -15138977.33649 -11767040.10048  22421243.9834   22421250.6494
  24645391.9774   -4659767.60847  -3626109.93847  24645394.9474   24645407.7674
  21279042.2174  -21086142.69849 -16358308.97948  21279042.4914   21279048.2574
  20567340.9624  -25950707.16549 -20202001.56049  20567340.5234   20567344.9924
  23910326.8274   -8176576.56248  -6281168.78947  23910326.5024   23910333.2344
  23916024.8554   -7062640.73448  -5333108.09447  23916023.8434   23916032.8814
 03 10 29  0 23  0.0000000  0  8G 7G11G 8G24G 4G28G20G 9
  20928421.3034  -19081698.63049 -14839786.47149  20928420.5514   20928427.2354
  24408727.9424   -3190387.92348  -2364434.70047  24408728.0944   24408733.7814
  22441530.8214  -15032369.42449 -11683969.03348  22441530.5454   22441537.6474
  24624595.0534   -4769049.50448  -3711264.32347  24624596.8764   24624610.7114
  21264015.7754  -21165105.47049 -16419838.30648  21264016.0554   21264022.2804
  20568301.5054  -25945660.15749 -20198068.80249  20568300.8984   20568305.4014
  23905754.8644   -8200604.02148  -6299891.43347  23905755.4644   23905761.4464
  23901457.4984   -7139189.55648  -5392756.35947  23901456.8834   23901466.6194
 03 10 29  0 23 30.0000000  0  8G 7G11G 8G24G 4G28G20G 9
  20929031.1844  -19078491.20749 -14837287.12949  20929031.0024   20929037.4354
  24427792.9744   -3090202.41348  -2286368.02147  24427792.1764   24427798.1934
  22461857.4944  -14925550.92949 -11600733.88748  22461856.2504   22461864.9884
  24603818.2544   -4878240.34048  -3796347.76047  24603818.1814   24603832.9034
  21249071.5314  -21243638.54649 -16481032.80348  21249071.7114   21249077.6744
  20569329.7684  -25940255.41749 -20193857.28549  20569329.2994   20569333.8794
  23901266.6904   -8224191.33448  -6318271.10247  23901265.7834   23901271.7154
  23886967.1864   -7215334.30148  -5452089.73947  23886967.9344   23886976.2254
 03 10 29  0 24  0.0000000  0  8G 7G11G 8G24G 4G28G20G 9
  20929667.3224  -19075149.10349 -14834682.84249  20929666.9054   20929673.2214
  24446877.6004   -2989906.05448  -2208214.98747  24446878.2424   24446883.5324
  22482223.9164  -14818523.30849 -11517335.78248  22482223.9944   22482231.2354
  24583057.9184   -4987336.51148  -3881357.31747  24583057.4014   24583070.2874
  21234209.8274  -21321738.43549 -16541889.76248  21234209.8154   21234215.9274
  20570426.8014  -25934490.27149 -20189364.93349  20570426.5094   20570430.9024
  23896862.5344   -8247335.30748  -6336305.32247  23896861.8434   23896867.6394
  23872555.2174   -7291071.16448  -5511105.30147  23872554.8984   23872565.2164
 03 10 29  0 24 30.0000000  0  8G 7G11G 8G24G 4G28G20G 9
  20930329.4084  -19071670.50949 -14831972.20449  20930328.7314   20930335.1774
  24465985.5684   -2889498.66348  -2129975.42047  24465986.4354   24465990.3194
  22502630.2834  -14711287.16349 -11433775.19748  22502630.1784   22502636.7984
  24562317.1764   -5096332.78748  -3966289.01447  24562318.7044   24562328.9344
  21219430.4074  -21399400.36649 -16602405.44948  21219430.9284   21219437.4704
  20571593.1794  -25928360.93049 -20184588.79449  20571592.7954   20571597.4544
  23892543.9484   -8270031.36148  -6353990.51747  23892543.3254   23892548.7224
  23858221.7724   -7366395.19648  -5569799.16047  23858221.2354   23858230.2664
 03 10 29  0 25  0.0000000  0  8G 7G11G 8G24G 4G28G20G 9
  20931016.1264  -19068062.43549 -14829160.67349  20931015.2904   20931021.4524
  24485111.6384   -2788988.94848  -2051656.10647  24485111.9514   24485118.5314
  22523074.7364  -14603851.86249 -11350059.40648  22523074.4184   22523082.6194
  24541593.3644   -5205233.51248  -4051146.25347  24541594.2834   24541607.9064
  21204734.8064  -21476628.96649 -16662583.48648  21204734.5584   21204740.6574
  20572827.8214  -25921872.68749 -20179532.99449  20572827.7464   20572831.8024
  23888308.3704   -8292284.02748  -6371330.20547  23888308.2714   23888314.7124
  23843965.5664   -7441310.74648  -5628174.74947  23843964.4554   23843974.1174
 03 10 29  0 25 30.0000000  0  8G 7G11G 8G24G 4G28G20G 9
  20931728.4474  -19064318.23949 -14826243.07149  20931728.0674   20931734.2064
  24504256.9744   -2688371.57948  -1973252.94147  24504258.4384   24504262.6184
  22543557.5964  -14496213.01549 -11266185.01248  22543556.6734   22543564.1774
  24520889.6494   -5314028.78048  -4135921.29447  24520888.4894   24520902.9394
  21190122.7684  -21553414.26049 -16722416.08149  21190122.6284   21190129.3674
  20574132.4364  -25915016.55449 -20174190.51949  20574132.1054   20574136.5314
  23884160.7774   -8314084.08448  -6388317.20947  23884160.2684   23884165.7274
  23829789.0694   -7515807.76048  -5686224.19547  23829788.8464   23829799.6294
 03 10 29  0 26  0.0000000  0  8G 7G11G 8G24G 4G28G20G 9
  20932465.0404  -19060448.67249 -14823227.77449  20932464.3224   20932470.3654
  24523421.9614   -2587658.78548  -1894775.39847  24523422.1154   24523428.5524
  22564077.3334  -14388383.51449 -11182162.06848  22564075.8584   22564084.1254
  24500204.9754   -5422726.35148  -4220620.19247  24500205.1634   24500219.0734
  21175593.8424  -21629764.48849 -16781909.66949  21175593.8154   21175600.6284
  20575505.3914  -25907801.50149 -20168568.36949  20575505.3134   20575509.4244
  23880097.2584   -8335439.80648  -6404957.97247  23880095.2764   23880101.4434
  23815691.3804   -7589894.15848  -5743953.64347  23815691.2584   23815699.3934
 03 10 29  0 26 30.0000000  0  8G 7G11G 8G24G 4G28G20G 9
  20933225.7554  -19056450.34449 -14820112.15049  20933225.3394   20933231.4004
  24542606.2594   -2486848.84348  -1816222.17247  24542605.3614   24542613.9384
  22584633.0304  -14280362.70349 -11097990.04448  22584631.5964   22584639.2634
  24479540.0684   -5531319.66748  -4305237.84947  24479538.5124   24479553.6734
  21161148.5104  -21705673.64049 -16841059.56049  21161149.0604   21161154.9404
  20576947.8184  -25900222.10149 -20162662.31249  20576947.4814   20576951.6784
  23876117.9324   -8356345.21948  -6421247.86447  23876117.4944   23876123.1814
  23801671.8954   -7663563.56048  -5801358.20447  23801672.9494   23801681.9524
 03 10 29  0 27  0.0000000  0  8G 7G11G 8G24G 4G28G20G 9
  20934012.8954  -19052312.48949 -14816887.80049  20934012.5754   20934018.8294
  24561810.3084   -2385932.56648  -1737586.08447  24561811.2734   24561816.4404
  22605225.2764  -14172142.04049 -11013662.30648  22605225.9324   22605233.6264
  24458896.6084   -5639795.17948  -4389763.70047  24458896.6114   24458911.3654
  21146790.0964  -21781128.04749 -16899855.10849  21146790.0434   21146795.8184
  20578461.8894  -25892265.81649 -20156462.57649  20578461.4084   20578465.6754
  23872227.6364   -8376787.15348  -6437176.58747  23872226.1354   23872233.3954
  23787735.3694   -7736802.14248  -5858427.05747  23787733.8504   23787744.5244
 03 10 29  0 27 30.0000000  0  8G 7G11G 8G24G 4G28G20G 9
  20934824.4134  -19048048.33749 -14813565.04049  20934823.9394   20934829.9834
  24581032.9734   -2284924.66247  -1658878.59647  24581031.5434   24581034.9274
  22625855.3444  -14063737.08349 -10929190.94548  22625853.4824   22625861.6774
  24438274.5164   -5748163.03348  -4474205.69347  24438274.1104   24438288.4674
  21132515.6544  -21856138.41249 -16958304.63649  21132516.6484   21132522.6044
  20580045.4074  -25883944.01249 -20149978.01849  20580044.9364   20580049.0094
  23868424.8614   -8396776.20248  -6452752.42347  23868422.5854   23868428.5404
  23773877.2074   -7809620.13748  -5915168.15547  23773877.6894   23773887.6394
 03 10 29  0 28  0.0000000  0  8G 7G11G 8G24G 4G28G20G 9
  20935661.0254  -19043651.79049 -14810139.11549  20935660.3804   20935666.5844
  24600271.4664   -2183820.27147  -1580095.94947  24600270.5754   24600275.4794
  22646519.6734  -13955144.05249 -10844573.03848  22646519.2624   22646527.3894
  24417675.2304   -5856413.79148  -4558556.47247  24417675.2034   24417688.0944
  21118327.9544  -21930695.65549 -17016401.09449  21118328.4204   21118334.8844
  20581700.2344  -25875248.47449 -20143202.23949  20581699.9044   20581703.8464
  23864709.1794   -8416304.00448  -6467968.84247  23864708.0754   23864713.4834
  23760102.6564   -7882008.34548  -5971574.38547  23760103.5884   23760112.4814
 03 10 29  0 28 30.0000000  0  8G 7G11G 8G24G 4G28G20G 9
  20936521.7604  -19039128.63749 -14806614.53749  20936521.0014   20936527.4984
  24619526.9574   -2082626.80347  -1501243.86647  24619526.3424   24619533.3464
  22667218.6554  -13846370.97849 -10759814.85148  22667220.1164   22667225.1994
  24397096.9924   -5964550.43248  -4642818.30147  24397098.0304   24397109.4054
  21104225.4274  -22004803.15449 -17074147.09449  21104226.2574   21104231.7754
  20583424.9594  -25866183.19149 -20136138.34749  20583424.7424   20583429.0594
  23861078.9114   -8435373.80748  -6482828.39047  23861078.3924   23861085.6964
  23746408.5134   -7953969.59748  -6027647.92647  23746407.8844   23746417.5354
 03 10 29  0 29  0.0000000  0  8G 7G11G 8G24G 4G28G20G 9
  20937406.5774  -19034477.91249 -14802990.55749  20937406.2694   20937412.1564
  24638800.3474   -1981344.97548  -1422322.92947  24638800.8134   24638806.1454
  22687951.0594  -13737419.48749 -10674917.63248  22687951.7514   22687958.9644
  24376542.7564   -6072568.85048  -4726988.02147  24376541.2334   24376552.7274
  21090210.1484  -22078457.16349 -17131539.73749  21090210.2284   21090216.1924
  20585220.8904  -25856745.40549 -20128784.19549  20585220.4074   20585224.9984
  23857536.7954   -8453982.45048  -6497328.58447  23857536.6144   23857543.2264
  23732796.5454   -8025500.35848  -6083386.00747  23732796.2644   23732804.9484
 03 10 29  0 29 30.0000000  0  8G 7G11G 8G24G 4G28G20G 9
  20938316.1224  -19029697.76049 -14799265.71649  20938315.6634   20938321.7894
  24658089.6564   -1879974.17348  -1343332.66647  24658089.9014   24658096.0534
  22708717.7434  -13628290.03249 -10589881.73248  22708718.3824   22708725.1274
  24356009.2174   -6180464.56948  -4811062.10547  24356010.0854   24356023.9394
  21076280.8684  -22151653.31249 -17188575.59349  21076281.0834   21076287.1434
  20587088.3534  -25846931.43749 -20121136.91449  20587088.0414   20587092.4294
  23854084.5894   -8472125.41348  -6511465.90347  23854083.7774   23854089.6914
  23719267.7184   -8096595.67548  -6138784.80747  23719267.0024   23719276.4864
 03 10 29  0 30  0.0000000  0  8G 7G11G 8G24G 4G28G20G 9
  20939249.0224  -19024795.17349 -14795445.48149  20939248.9084   20939254.8354
  24677397.4974   -1778523.20548  -1264279.92847  24677394.4994   24677399.4054
  22729516.5254  -13518991.91349 -10504714.40448  22729516.6804   22729524.8754
  24335500.5394   -6288241.55748  -4895043.70747  24335500.2264   24335513.5744
  21062438.7234  -22224395.94349 -17245258.06149  21062439.0314   21062445.2354
  20589026.6854  -25836746.35949 -20113200.45549  20589026.1804   20589030.5554
  23850720.4014   -8489807.59648  -6525244.18047  23850719.9074   23850726.7164
  23705819.3934   -8167259.65548  -6193847.47447  23705819.8464   23705829.7264
 03 10 29  0 30 30.0000000  0  8G 7G11G 8G24G 4G28G20G 9
  20940206.1364  -19019764.64249 -14791525.54849  20940205.6344   20940211.9104
  24696717.3134   -1676988.00248  -1185161.54247  24696716.9704   24696723.4844
  22750347.6864  -13409522.18549 -10419413.37348  22750346.6754   22750357.3984
  24315013.9764   -6395891.19748  -4978926.09947  24315013.1944   24315026.2264
  21048683.7984  -22296677.17149 -17301580.99649  21048684.0014   21048689.9234
  20591036.8304  -25826183.08249 -20104969.29949  20591036.3124   20591040.7704
  23847444.3614   -8507021.23248  -6538657.35147  23847444.7044   23847450.7944
  23692456.7834   -8237484.07548  -6248567.65747  23692456.5294   23692465.0414
 03 10 29  0 31  0.0000000  0  8G 7G11G 8G24G 4G28G20G 9
  20941187.9484  -19014608.48549 -14787507.72949  20941187.0924   20941193.2114
  24716055.2584   -1575372.40348  -1105980.51747  24716054.8144   24716060.6274
  22771212.1894  -13299885.30049 -10333982.09748  22771211.1494   22771218.3134
  24294553.2024   -6503412.65848  -5062708.61147  24294553.8234   24294566.6804
  21035016.9514  -22368496.55749 -17357544.05349  21035017.1254   21035023.6424
  20593118.6914  -25815241.70849 -20096443.52349  20593118.4484   20593122.5784
  23844258.8294   -8523766.00348  -6551705.17547  23844257.6224   23844263.2714
  23679177.6714   -8307268.04948  -6302944.60647  23679178.7484   23679188.2594
 03 10 29  0 31 30.0000000  0  8G 7G11G 8G24G 4G28G20G 9
  20942191.9414  -19009331.11049 -14783395.44749  20942191.1544   20942197.2984
  24735404.9384   -1473682.35848  -1026741.47247  24735405.3904   24735412.4764
  22792105.9544  -13190088.25649 -10248426.00548  22792104.8784   22792112.0714
  24274115.5914   -6610807.68748  -5146392.61647  24274116.7164   24274128.6824
  21021437.3824  -22439856.20349 -17413148.87049  21021437.7964   21021443.5954
  20595272.0084  -25803925.25349 -20087625.47249  20595271.5874   20595276.0124
  23841161.3054   -8540044.41748  -6564389.60747  23841160.7784   23841166.2294
  23665980.8504   -8376613.50548  -6356979.85647  23665980.3564   23665991.0724
 03 10 29  0 32  0.0000000  0  8G 7G11G 8G24G 4G28G20G 9
  20943220.0354  -19003927.81949 -14779185.04549  20943219.4504   20943225.3354
  24754770.4364   -1371914.70548   -947441.94347  24754771.0894   24754774.8304
  22813029.9754  -13080128.68449 -10162743.29248  22813029.9064   22813036.1144
  24253704.8484   -6718068.42648  -5229971.97647  24253704.3694   24253717.1784
  21007947.0514  -22510748.78849 -17468389.74949  21007947.3334   21007953.1514
  20597498.1634  -25792227.13049 -20078510.02549  20597498.0514   20597501.9054
  23838153.8634   -8555849.34948  -6576705.09047  23838152.5134   23838159.2024
  23652870.9974   -8445512.79648  -6410667.46047  23652870.6034   23652878.8744
 03 10 29  0 32 30.0000000  0  8G 7G11G 8G24G 4G28G20G 9
  20944271.0404  -18998403.64749 -14774880.44949  20944270.6844   20944276.4584
  24774150.6204   -1270075.84448   -868086.97247  24774149.8694   24774153.7844
  22833984.3914  -12970014.03149 -10076939.73248  22833984.1394   22833992.1234
  24233319.4954   -6825196.88748  -5313448.25647  24233318.9844   24233330.1074
  20994545.0714  -22581176.77449 -17523268.60349  20994545.1474   20994550.9864
  20599796.0894  -25780150.65549 -20069099.75349  20599795.7994   20599800.3994
  23835234.8214   -8571183.65748  -6588653.84447  23835234.9834   23835241.6884
  23639842.8004   -8513968.20248  -6464009.18047  23639842.6544   23639851.4574
 03 10 29  0 33  0.0000000  0  8G 7G11G 8G24G 4G28G20G 9
  20945346.3154  -18992754.02749 -14770478.10449  20945345.9364   20945351.8214
  24793542.7414   -1168162.81848   -788674.14447  24793543.7524   24793547.3224
  22854967.6444  -12859742.22148  -9991013.69748  22854967.4244   22854977.6324
  24212959.2744   -6932185.65748  -5396815.70447  24212959.6264   24212971.3714
  20981232.5814  -22651133.34049 -17577780.12049  20981232.5704   20981238.6564
  20602167.4484  -25767689.55149 -20059389.77649  20602166.9804   20602171.2054
  23832407.3524   -8586040.73948  -6600230.73947  23832408.9844   23832413.5684
  23626902.3094   -8581972.36448  -6516999.26547  23626902.9474   23626910.9314
 03 10 29  0 33 30.0000000  0  8G 7G11G 8G24G 4G28G20G 9
  20946443.9244  -18986985.22149 -14765982.87849  20946443.3224   20946449.3334
  24812950.1284   -1066183.07848   -709209.35547  24812948.6274   24812954.5234
  22875979.9244  -12749321.73248  -9904971.82448  22875980.8994   22875988.2944
  24192626.0514   -7039037.74848  -5480076.60547  24192626.3194   24192638.5854
  20968009.3784  -22720621.97349 -17631927.01449  20968009.5454   20968015.2144
  20604611.0424  -25754848.20649 -20049383.50049  20604610.9064   20604614.7454
  23829670.7014   -8600424.44048  -6611438.77647  23829668.5144   23829676.1684
  23614047.7254   -8649528.65748  -6569640.35547  23614048.2024   23614056.0594
 03 10 29  0 34  0.0000000  0  8G 7G11G 8G24G 4G28G20G 9
  20947564.7784  -18981095.03149 -14761393.06749  20947564.3114   20947570.2754
  24832368.8444    -964136.23948   -629692.29247  24832369.0004   24832375.2074
  22897020.6794  -12638752.91248  -9818814.37248  22897021.7714   22897028.5894
  24172320.0944   -7145748.60348  -5563227.42547  24172319.4954   24172330.2864
  20954875.7394  -22789638.52649 -17685706.05049  20954875.8094   20954881.5734
  20607127.9194  -25741622.96249 -20039078.08649  20607127.4534   20607131.5414
  23827023.8574   -8614330.69348  -6622274.76347  23827024.9484   23827029.6864
  23601277.4044   -8716632.49648  -6621928.90847  23601277.0734   23601285.9754
 03 10 29  0 34 30.0000000  0  8G 7G11G 8G24G 4G28G20G 9
  20948708.9104  -18975082.82249 -14756708.17649  20948708.4894   20948714.3254
  24851800.1274    -862023.28348   -550123.67247  24851800.3024   24851805.5004
  22918088.9194  -12528037.54948  -9732542.71547  22918088.5884   22918097.2674
  24152040.0824   -7252314.29748  -5646265.15547  24152039.9884   24152052.1934
  20941832.6284  -22858179.73949 -17739114.69149  20941833.1614   20941838.7114
  20609717.9324  -25728011.27449 -20028471.54549  20609717.6134   20609721.3984
  23824468.6564   -8627756.49848  -6632736.38747  23824468.0384   23824474.2264
  23588595.8644   -8783280.33648  -6673862.08747  23588594.7374   23588602.9334
 03 10 29  0 35  0.0000000  0  8G 7G11G 8G24G 4G28G20G 9
  20949875.8004  -18968951.97049 -14751930.83249  20949875.0354   20949880.7914
  24871243.2944    -759848.79348   -470507.15847  24871243.5624   24871247.6824
  22939185.6944  -12417181.38049  -9646161.34247  22939183.7374   22939192.7484
  24131789.0684   -7358735.43148  -5729190.20547  24131789.1864   24131799.0424
  20928879.8304  -22926246.76949 -17792153.84649  20928879.9664   20928885.6824
  20612381.3984  -25714015.11649 -20017565.42049  20612381.0204   20612385.1944
  23822004.9084   -8640703.40448  -6642824.83647  23822005.1194   23822010.4444
  23575998.8964   -8849472.77648  -6725440.44847  23575998.5054   23576006.6674
 03 10 29  0 35 30.0000000  0  8G 7G11G 8G24G 4G28G20G 9
  20951064.3244  -18962703.34349 -14747061.72349  20951064.0204   20951070.0764
  24890698.5324    -657615.44248   -390844.69847  24890696.2624   24890701.9644
  22960306.9474  -12306187.80549  -9559672.90148  22960306.2774   22960314.2224
  24111564.5534   -7465009.97148  -5812001.02747  24111563.6384   24111576.6004
  20916017.5844  -22993838.08449 -17844822.31149  20916017.9434   20916023.4054
  20615117.8864  -25699633.63349 -20006359.04249  20615117.5004   20615121.7814
  23819632.6044   -8653170.17348  -6652539.14547  23819631.9614   23819638.8924
  23563489.2304   -8915208.21048  -6776662.70947  23563488.7794   23563497.9664
 03 10 29  0 36  0.0000000  0  8G 7G11G 8G24G 4G28G20G 9
  20952276.5984  -18956333.49549 -14742098.16149  20952275.8884   20952281.8604
  24910164.4554    -555321.08248   -311134.76447  24910164.8014   24910167.6514
  22981454.8384  -12195055.68649  -9473076.49248  22981454.4644   22981462.1204
  24091369.8954   -7571131.55048  -5894692.68047  24091368.6704   24091381.3034
  20903247.1304  -23060947.83649 -17897115.54349  20903247.4274   20903253.0314
  20617929.0024  -25684861.59449 -19994848.33549  20617928.7534   20617932.6524
  23817353.3754   -8665151.11948  -6661874.89347  23817351.3304   23817358.4594
  23551067.1764   -8980480.51648  -6827524.06247  23551067.5794   23551075.0044
 03 10 29  0 36 30.0000000  0  8G 7G11G 8G24G 4G28G20G 9
  20953510.6224  -18949848.27649 -14737044.69749  20953509.7834   20953515.8044
  24929639.5584    -452973.17647   -231383.09247  24929638.5724   24929642.3114
  23002627.5424  -12083793.45349  -9386378.70048  23002626.7964   23002634.4854
  24071202.8964   -7677103.23448  -5977267.51047  24071203.2004   24071214.6324
  20890567.3714  -23127579.67949 -17949036.37549  20890567.6364   20890573.3274
  20620813.6904  -25669703.21749 -19983036.58449  20620813.1374   20620817.1594
  23815165.0374   -8676650.44148  -6670835.34447  23815164.4124   23815169.5204
  23538734.4564   -9045292.87248  -6878027.04547  23538734.1554   23538742.9914
 03 10 29  0 37  0.0000000  0  8G 7G11G 8G24G 4G28G20G 9
  20954767.1114  -18943244.95049 -14731899.20549  20954766.8444   20954772.5774
  24949126.7164    -350570.61247   -151588.85847  24949128.0884   24949131.5364
  23023824.8114  -11972400.79249  -9299579.27447  23023825.1244   23023829.7294
  24051066.7124   -7782919.46848  -6059721.23047  24051066.7424   24051079.9624
  20877979.8834  -23193728.69549 -18000580.98549  20877980.2394   20877985.1094
  20623772.3824  -25654154.42649 -19970920.61749  20623771.8214   20623776.0534
  23813069.3034   -8687663.25748  -6679416.73047  23813069.4554   23813074.5364
  23526490.7964   -9109639.94248  -6928167.44647  23526489.9484   23526498.5024
 03 10 29  0 37 30.0000000  0  8G 7G11G 8G24G 4G28G20G 9
  20956045.9064  -18936525.02649 -14726662.85649  20956045.1504   20956050.9134
  24968623.7164    -248116.21347    -71754.20646  24968621.6974   24968626.1294
  23045045.4524  -11860881.67549  -9212681.30747  23045044.9564   23045052.6224
  24030960.0734   -7888578.95048  -6142052.82247  24030960.7114   24030971.8714
  20865483.4674  -23259394.14449 -18051748.78549  20865483.8284   20865489.8374
  20626805.4004  -25638215.13949 -19958500.36849  20626805.0684   20626809.2834
  23811067.3564   -8698189.09948  -6687618.65047  23811065.6884   23811072.5204
  23514332.7934   -9173520.79348  -6977944.56647  23514333.4994   23514340.9814
 03 10 29  0 38  0.0000000  0  8G 7G11G 8G24G 4G28G20G 9
  20957346.7434  -18929688.62249 -14721335.74549  20957346.3474   20957352.1084
  24988128.1044    -145611.28247      8119.82546  24988127.7134   24988134.7114
