     2.11           OBSERVATION DATA    G (GPS)             RINEX VERSION / TYPE
teqc  2018Jan11                         20190202 20:51:22UTCPGM / RUN BY / DATE
Linux 2.4.21-27.ELsmp|Opteron|gcc -static|Linux 64|=+       COMMENT
teqc  2018Jan11                         20190102 01:02:26UTCCOMMENT
teqc  2018Jan11     NOAA/NOS/NGS/CORS   20190101 01:29:36UTCCOMMENT
Spider V7.1.0.7428                      2019 01 01 01:02    COMMENT
BIT 2 OF LLI FLAGS DATA COLLECTED UNDER A/S CONDITION       COMMENT
SNR is mapped to RINEX snr flag value [1-9]                 COMMENT
LX:    >= 25dBHz -> 1; 26-27dBHz -> 2; 28-31dBHz -> 3       COMMENT
       32-35dBHz -> 4; 36-38dBHz -> 5; 39-41dBHz -> 6       COMMENT
       42-44dBHz -> 7; 45-48dBHz -> 8; >= 49dBHz -> 9       COMMENT
Product                                                     COMMENT
NYIL                                                        MARKER NAME
NYIL                                                        MARKER NUMBER
Stephen Roden       NYSDOT                                  OBSERVER / AGENCY
355174              LEICA GRX1200GGPRO  9.20/3.823          REC # / TYPE / VERS
200326              LEIAT504GG      LEIS                    ANT # / TYPE
  1249891.1850 -4440006.9000  4391037.3870                  APPROX POSITION XYZ
        0.0000        0.0000        0.0000                  ANTENNA: DELTA H/E/N
     1     1                                                WAVELENGTH FACT L1/2
     8    C1    L1    D1    S1    P2    L2    D2    S2      # / TYPES OF OBSERV
    30.0000                                                 INTERVAL
teqc.e windowed: start @ 2019 Jan  1 00:00:00.000           COMMENT
teqc.e windowed: delta = 3600.000 sec                       COMMENT
teqc.e edited: all SBAS satellites excluded                 COMMENT
teqc.e edited: all QZSS satellites excluded                 COMMENT
Forced Modulo Decimation to 30 seconds                      COMMENT
  2019     1     1     0     0    0.0000000     GPS         TIME OF FIRST OBS
                                                            END OF HEADER
 19  1  1  0  0  0.0000000  0  8G07G08G09G16G21G23G26G27
  23004558.060   120889777.257 9      2947.402          49.500    23004555.120
  94199815.78946      2296.672          40.750
  21527126.100   113125843.111 9      2737.633          50.250    21527127.160
  88150035.33348      2133.215          47.250
  21219392.720   111508680.932 9       -46.570          50.250    21219392.600
  86889880.84549       -36.289          49.000
  21007465.480   110395026.275 9     -2095.051          50.500    21007462.360
  86022110.91048     -1632.512          47.250
  25157265.440   132202324.195 6      -571.773          41.750    25157262.640
 103014783.48644      -445.539          35.750
  21372571.640   112313651.837 9     -1707.867          51.000    21372566.700
  87517115.74348     -1330.809          46.500
  22883471.140   120253503.829 8     -2816.602          47.250    22883472.060
  93704055.41446     -2194.754          41.500
  20440314.580   107414625.998 9       885.453          51.500    20440314.300
  83699701.27749       689.965          51.000
 19  1  1  0  0 30.0000000  0  8G07G08G09G16G21G23G26G27
  22987741.420   120801406.076 8      2943.211          48.750    22987738.440
  94130955.13646      2293.410          41.000
  21511538.720   113043930.876 9      2722.492          50.250    21511539.680
  88086207.62448      2121.418          47.000
  21219717.800   111510389.473 9       -67.902          50.500    21219717.780
  86891212.16749       -52.914          49.000
  21019451.360   110458012.594 9     -2104.625          50.500    21019448.240
  86071191.15448     -1639.973          47.250
  25160572.600   132219702.016 6      -587.453          39.500    25160569.220
 103028324.62944      -457.754          35.000
  21382372.020   112365152.685 9     -1726.230          51.250    21382367.000
  87557246.26048     -1345.117          46.500
  22899561.140   120338055.918 8     -2820.965          48.250    22899561.920
  93769940.17147     -2198.156          42.250
  20435319.800   107388378.470 9       863.723          51.250    20435319.560
  83679248.67449       673.031          51.250
 19  1  1  0  1  0.0000000  0  8G07G08G09G16G21G23G26G27
  22970943.440   120713132.816 9      2940.992          49.250    22970940.600
  94062170.77046      2291.680          41.500
  21496032.400   112962445.374 9      2709.277          50.000    21496033.440
  88022712.43748      2111.125          47.250
  21220159.980   111512712.908 9       -87.469          50.250    21220159.940
  86893022.63449       -68.160          49.250
  21031487.240   110521261.843 9     -2112.391          50.500    21031484.180
  86120476.27648     -1646.020          47.250
  25163964.920   132237527.528 6      -601.328          41.250    25163961.140
 103042214.64244      -468.570          33.500
  21392271.780   112417176.283 9     -1742.508          51.250    21392266.820
  87597784.12448     -1357.797          46.500
  22915670.080   120422708.199 8     -2823.258          47.750    22915670.920
  93835902.96747     -2199.941          42.000
  20430444.580   107362759.718 9       843.813          51.500    20430444.480
  83659286.02949       657.516          51.250
 19  1  1  0  1 30.0000000  0  8G07G08G09G16G21G23G26G27
  22954163.880   120624955.675 9      2937.438          49.250    22954161.100
  93993461.31446      2288.910          41.000
  21480607.080   112881385.545 9      2694.691          50.250    21480608.180
  87959548.95548      2099.754          47.000
  21220718.600   111515648.085 9      -108.098          50.250    21220718.560
  86895309.77448       -84.234          48.750
  21043572.340   110584769.257 9     -2121.363          50.500    21043569.140
  86169962.57648     -1653.012          46.750
  25167441.600   132255796.858 6      -616.250          41.250    25167437.640
 103056450.48244      -480.203          33.000
  21402269.900   112469717.331 9     -1760.078          51.250    21402265.060
  87638725.19448     -1371.488          46.250
  22931797.300   120507456.463 8     -2826.645          47.500    22931797.940
  93901940.58646     -2202.582          41.500
  20425688.620   107337767.184 9       822.520          51.500    20425688.500
  83639811.33349       640.926          51.000
 19  1  1  0  2  0.0000000  0  8G07G08G09G16G21G23G26G27
  22937402.540   120536874.830 9      2934.582          49.250    22937400.160
  93924826.90846      2286.688          41.000
  21465263.220   112800752.628 9      2680.871          50.500    21465264.240
  87896718.11448      2088.992          47.250
  21221393.320   111519193.478 9      -128.090          50.500    21221393.220
  86898072.42748       -99.813          48.750
  21055705.840   110648531.708 9     -2129.332          50.250    21055702.620
  86219647.59548     -1659.219          47.250
  25171001.980   132274507.772 6      -630.891          41.750    25170997.960
 103071030.43944      -491.602          32.250
  21412365.800   112522772.723 9     -1776.824          51.000    21412361.240
  87680067.05548     -1384.543          46.250
  22947942.020   120592298.388 8     -2829.527          47.250    22947942.640
  93968051.17747     -2204.828          42.000
  20421051.740   107313399.966 9       802.086          51.500    20421051.640
  83620823.89249       625.004          51.250
 19  1  1  0  2 30.0000000  0  8G07G08G09G16G21G23G26G27
  22920660.480   120448894.989 9      2930.980          49.500    22920658.020
  93856271.19246      2283.883          41.000
  21450001.480   112720551.249 9      2666.121          50.500    21450002.460
  87834223.54348      2077.496          47.250
  21222184.660   111523352.006 9      -148.902          50.500    21222184.400
  86901312.82348      -116.031          48.750
  21067888.240   110712550.786 9     -2138.176          50.500    21067885.080
  86269532.58548     -1666.113          46.750
  25174647.060   132293664.355 6      -646.137          41.000    25174643.220
 103085957.66743      -503.484          30.500
  21422559.740   112576343.538 9     -1794.266          51.000    21422555.340
  87721810.53648     -1398.133          45.750
  22964104.980   120677235.868 8     -2832.828          47.000    22964105.900
  94034236.21647     -2207.402          42.250
  20416534.600   107289661.670 9       780.816          51.750    20416534.420
  83602326.53149       608.430          51.000
 19  1  1  0  3  0.0000000  0  8G07G08G09G16G21G23G26G27
  22903937.660   120361015.688 9      2927.852          49.000    22903935.420
  93787793.82447      2281.441          42.250
  21434821.880   112640781.797 9      2651.984          50.250    21434822.800
  87772065.53748      2066.480          47.250
  21223092.240   111528121.516 9      -168.898          50.250    21223091.940
  86905029.32948      -131.613          48.750
  21080118.740   110776822.456 9     -2146.395          50.000    21080115.500
  86319614.40348     -1672.520          46.750
  25178376.220   132313263.640 6      -660.344          40.500    25178373.200
 103101229.81744      -514.559          32.250
  21432851.100   112630425.961 9     -1811.063          50.500    21432846.820
  87763952.68048     -1411.219          45.750
  22980285.780   120762265.947 8     -2835.605          48.000    22980286.620
  94100493.40647     -2209.566          42.500
  20412136.800   107266550.736 9       760.082          51.500    20412136.600
  83584318.02049       592.270          51.250
 19  1  1  0  3 30.0000000  0  8G07G08G09G16G21G23G26G27
  22887232.960   120273232.338 9      2924.500          49.000    22887230.660
  93719391.23546      2278.828          41.750
  21419723.600   112561440.475 9      2637.461          50.000    21419724.600
  87710241.15948      2055.164          47.500
  21224114.780   111533495.641 9      -189.270          50.250    21224114.640
  86909216.95448      -147.488          48.750
  21092395.900   110841339.230 9     -2154.668          50.500    21092392.640
  86369887.21648     -1678.965          46.750
  25182189.040   132333299.227 6      -675.266          41.500    25182185.480
 103116841.95944      -526.180          34.250
  21443238.440   112685012.209 9     -1828.043          50.500    21443234.220
  87806487.39648     -1424.453          45.500
  22996482.960   120847381.391 8     -2838.797          47.750    22996483.500
  94166817.12746     -2212.055          41.500
  20407857.260   107244061.373 9       739.277          51.500    20407857.020
  83566793.86949       576.059          51.250
 19  1  1  0  4  0.0000000  0  8G07G08G09G16G21G23G26G27
  22870548.500   120185554.531 9      2920.855          49.500    22870546.220
  93651070.87446      2275.992          41.500
  21404708.660   112482536.916 9      2622.832          50.250    21404709.780
  87648757.89348      2043.766          47.250
  21225253.960   111539482.075 9      -209.598          50.500    21225253.740
  86913881.70048      -163.328          48.500
  21104720.940   110906107.245 9     -2163.020          50.500    21104717.640
  86420355.80448     -1685.473          46.750
  25186086.360   132353778.684 6      -689.766          41.500    25186082.700
 103132799.98144      -537.484          33.250
  21453722.920   112740108.079 9     -1844.980          50.500    21453718.680
  87849419.24348     -1437.652          45.250
  23012697.640   120932589.098 8     -2841.844          48.000    23012698.040
  94233212.75146     -2214.422          41.500
  20403697.520   107222201.976 9       718.184          51.500    20403697.340
  83549760.58949       559.625          51.250
 19  1  1  0  4 30.0000000  0  8G07G08G09G16G21G23G26G27
  22853883.880   120097980.319 9      2917.254          49.500    22853881.440
  93582831.24246      2273.180          41.750
  21389776.760   112404069.730 9      2608.168          50.000    21389777.900
  87587614.64848      2032.340          47.500
  21226508.940   111546076.992 9      -229.988          50.250    21226508.720
  86919020.59649      -179.215          49.000
  21117092.640   110971121.018 9     -2171.223          50.250    21117089.400
  86471015.88248     -1691.863          47.000
  25190067.360   132374698.344 6      -704.824          40.250    25190063.880
 103149101.05244      -549.215          32.500
  21464303.480   112795708.206 9     -1861.762          50.500    21464299.040
  87892743.99348     -1450.727          45.500
  23028928.780   121017884.509 8     -2844.840          47.500    23028929.320
  94299676.69946     -2216.762          41.750
  20399657.060   107200969.286 9       697.207          51.500    20399656.880
  83533215.64849       543.277          51.500
 19  1  1  0  5  0.0000000  0  8G07G08G09G16G21G23G26G27
  22837239.260   120010512.967 9      2913.996          49.250    22837236.740
  93514674.87346      2270.641          41.000
  21374928.600   112326042.536 9      2593.668          50.000    21374929.780
  87526814.26548      2021.039          47.500
  21227879.960   111553281.806 9      -250.246          50.500    21227879.900
  86924634.73949      -195.000          49.000
  21129511.100   111036380.807 9     -2179.313          50.000    21129507.960
  86521867.65548     -1698.168          46.750
  25194132.160   132396059.667 6      -719.316          39.750    25194128.860
 103165746.24143      -560.504          30.750
  21474979.780   112851812.040 9     -1878.422          50.500    21474975.220
  87936461.23748     -1463.711          45.000
  23045176.760   121103268.233 8     -2847.414          48.000    23045177.440
  94366209.47146     -2218.766          41.000
  20395736.320   107180365.375 9       676.387          51.500    20395736.000
  83517160.67349       527.055          51.250
 19  1  1  0  5 30.0000000  0  8G07G08G09G16G21G23G26G27
  22820615.980   119923156.387 9      2909.797          49.500    22820613.260
  93446604.78846      2267.371          41.250
  21360165.100   112248459.649 9      2578.484          50.250    21360166.300
  87466360.09448      2009.207          47.750
  21229367.460   111561098.361 9      -271.125          50.500    21229367.500
  86930725.55749      -211.266          49.000
  21141976.560   111101887.147 9     -2187.852          50.500    21141973.540
  86572911.55448     -1704.824          46.750
  25198280.980   132417864.012 6      -734.438          39.250    25198277.780
 103182736.61344      -572.297          33.000
  21485751.720   112908419.697 9     -1895.566          50.000    21485747.260
  87980571.07348     -1477.070          45.250
  23061441.780   121188741.461 8     -2850.746          47.750    23061442.360
  94432811.98646     -2221.363          41.000
  20391935.620   107160392.729 9       655.035          51.750    20391935.260
  83501597.58549       510.414          51.250
 19  1  1  0  6  0.0000000  0  8G07G08G09G16G21G23G26G27
  22804013.600   119835911.970 9      2906.594          49.500    22804011.240
  93378622.15646      2264.879          41.250
  21345486.320   112171322.268 9      2564.156          50.250    21345487.580
  87406253.08748      1998.043          47.250
  21230971.120   111569525.735 9      -290.746          50.500    21230971.140
  86937292.33848      -226.555          48.750
  21154488.480   111167637.791 9     -2195.387          50.500    21154485.440
  86624145.82248     -1710.691          46.000
  25202513.680   132440110.905 5      -748.230          38.500    25202511.460
 103200071.88745      -583.035          37.750
  21496619.160   112965529.037 9     -1911.609          50.500    21496614.740
  88025071.83148     -1489.570          45.000
  23077723.340   121274302.614 8     -2852.941          47.250    23077723.960
  94499483.00046     -2223.074          41.750
  20388254.960   107141050.930 9       634.613          51.750    20388254.540
  83486526.06549       494.500          51.000
 19  1  1  0  6 30.0000000  0  8G07G08G09G16G21G23G26G27
  22787431.600   119748772.707 9      2902.957          49.500    22787428.980
  93310721.42946      2262.043          41.750
  21330891.380   112094624.957 9      2549.227          50.500    21330892.440
  87346488.97348      1986.410          47.500
  21232689.380   111578555.428 9      -310.953          50.250    21232689.440
  86944328.46749      -242.301          49.250
  21167045.220   111233623.282 9     -2203.324          50.500    21167042.040
  86675563.09448     -1716.875          46.500
  25206829.900   132462791.418 5      -763.230          38.750    25206827.660
 103217745.02044      -594.730          33.250
  21507580.160   113023129.804 9     -1928.207          50.250    21507575.680
  88069955.52147     -1502.504          44.750
  23094020.220   121359942.508 8     -2855.930          48.250    23094020.360
  94566215.39846     -2225.398          40.250
  20384692.840   107122332.184 9       613.621          51.500    20384692.300
  83471940.03749       478.145          51.250
 19  1  1  0  7  0.0000000  0  8G07G08G09G16G21G23G26G27
  22770870.540   119661744.574 9      2898.453          49.250    22770867.960
  93242907.32046      2258.535          41.250
  21316381.400   112018373.530 9      2533.660          50.500    21316382.180
  87287072.28948      1974.281          47.250
  21234523.080   111588191.592 9      -331.875          50.500    21234523.200
  86951837.15449      -258.605          49.000
  21179646.980   111299845.694 9     -2211.906          50.500    21179643.720
  86727164.97648     -1723.563          46.000
  25211229.540   132485910.056 6      -778.832          40.750    25211227.000
 103235759.52044      -606.883          33.500
  21518635.080   113081224.323 9     -1945.270          50.000    21518630.700
  88115223.95748     -1515.797          45.500
  23110332.620   121445664.675 8     -2859.457          47.000    23110332.900
  94633011.87946     -2228.152          41.000
  20381250.160   107104241.212 9       591.957          51.500    20381249.660
  83457843.18449       461.266          51.250
 19  1  1  0  7 30.0000000  0  9G07G08G09G16G21G23G26G27G30
  22754332.440   119574835.946 9      2895.066          49.750    22754329.940
  93175186.31647      2255.891          42.000
  21301957.720   111942576.444 9      2519.031          50.500    21301958.480
  87228009.65748      1962.883          47.500
  21236473.460   111598440.212 9      -351.668          50.250    21236473.440
  86959823.09348      -274.031          48.750
  21192294.760   111366310.292 9     -2219.410          50.250    21192291.420
  86778955.56448     -1729.414          46.250
  25215713.620   132509472.442 6      -792.914          40.250    25215710.540
 103254119.80144      -617.859          33.250
  21529784.820   113139816.855 9     -1961.238          50.500    21529780.600
  88160880.45548     -1528.238          45.250
  23126661.580   121531474.575 8     -2861.684          46.750    23126661.880
  94699876.74446     -2229.883          41.250
  20377928.220   107086784.678 9       571.340          51.500    20377927.840
  83444240.69649       445.195          51.250
  25569990.000   134371202.226 5      3355.129          37.250    25569989.980
 104704835.40042      2614.391          26.750
 19  1  1  0  8  0.0000000  0  9G07G08G09G16G21G23G26G27G30
  22737816.220   119488042.433 9      2891.063          49.250    22737813.760
  93107555.01447      2252.777          42.250
  21287619.680   111867230.181 9      2503.668          50.250    21287620.600
  87169298.31548      1950.910          47.500
  21238539.060   111609294.835 9      -372.352          50.500    21238538.940
  86968281.23348      -290.148          48.750
  21204987.100   111433009.525 9     -2227.605          50.250    21204983.920
  86830928.99048     -1735.801          46.250
  25220280.640   132533472.388 5      -807.676          37.750    25220277.700
 103272821.06043      -629.363          30.000
  21541027.900   113198899.555 9     -1977.910          50.500    21541023.680
  88206918.92248     -1541.230          45.500
  23143005.740   121617365.195 8     -2864.734          46.500    23143006.520
  94766804.47946     -2232.266          41.000
  20374725.900   107069956.701 9       550.082          51.500    20374725.660
  83431128.00649       428.637          51.250
  25550834.040   134270536.520 5      3356.203          37.250    25550834.000
 104626394.64543      2615.234          30.750
 19  1  1  0  8 30.0000000  0  9G07G08G09G16G21G23G26G27G30
  22721322.260   119401366.203 9      2886.973          50.000    22721319.860
  93040015.12247      2249.586          42.750
  21273367.760   111792336.462 9      2488.547          50.250    21273368.780
  87110939.60348      1939.129          47.750
  21240719.820   111620755.310 9      -392.449          50.250    21240719.700
  86977211.47148      -305.809          48.750
  21217723.920   111499941.992 9     -2235.285          50.250    21217720.740
  86883084.15548     -1741.781          46.250
  25224930.160   132557909.515 5      -822.090          38.750    25224928.220
 103291862.96044      -640.594          33.250
  21552363.880   113258470.479 9     -1994.133          50.750    21552359.680
  88253337.82048     -1553.875          45.250
  23159365.440   121703335.896 8     -2867.324          47.250    23159365.880
  94833794.63846     -2234.281          39.000
  20371643.380   107053757.823 9       529.277          51.500    20371643.200
  83418505.51649       412.422          51.250
  25531669.300   134169826.795 5      3357.656          36.500

 19  1  1  0  9  0.0000000  0  9G07G08G09G16G21G23G26G27G30
  22704849.600   119314800.327 9      2882.813          49.750    22704846.860
  92972561.19147      2246.344          42.000
  21259200.820   111717889.039 9      2473.211          50.250    21259201.880
  87052928.63448      1927.176          47.750
  21243014.080   111632812.529 9      -412.789          50.250    21243013.920
  86986606.70148      -321.656          48.250
  21230503.240   111567097.239 9     -2243.133          50.500    21230500.080
  86935412.91948     -1747.895          46.000
  25229661.620   132582774.897 5      -837.055          38.750    25229660.220
 103311238.63444      -652.254          34.750
  21563790.920   113318518.905 9     -2010.430          51.000    21563786.540
  88300128.79348     -1566.574          45.500
  23175738.720   121789377.020 8     -2870.125          46.750    23175739.040
  94900839.67246     -2236.461          40.500
  20368678.980   107038179.444 9       508.086          51.750    20368678.860
  83406366.53349       395.906          51.500
  25512495.200   134069065.460 5      3358.637          36.500    25512493.800
 104469398.2544       2617.121          15.500
 19  1  1  0  9 30.0000000  0  9G07G08G09G16G21G23G26G27G30
  22688401.680   119228366.347 9      2879.035          50.250    22688398.720
  92905210.05046      2243.398          41.750
  21245123.020   111643909.603 9      2458.242          50.500    21245124.040
  86995282.34948      1915.512          47.500
  21245425.560   111645485.917 9      -432.516          50.250    21245425.540
  86996482.07048      -337.023          48.500
  21243328.400   111634493.746 9     -2250.449          50.500    21243325.200
  86987929.67448     -1753.602          45.500
  25234478.980   132608088.235 6      -851.207          40.750    25234477.060
 103330963.29944      -663.281          32.250
  21575312.320   113379062.820 9     -2026.230          51.250    21575307.740
  88347305.86448     -1578.887          45.500
  23192129.020   121875507.624 8     -2872.254          47.500    23192129.220
  94967954.42246     -2238.125          40.000
  20365836.480   107023241.716 9       487.480          51.750    20365836.320
  83394726.75449       379.855          51.250
  25493315.140   133968273.425 5      3361.051          37.000    25493314.440
 104390859.02945      2619.000          36.000
 19  1  1  0 10  0.0000000  0  9G07G08G09G16G21G23G26G27G30
  22671976.560   119142050.296 9      2875.375          50.000    22671973.440
  92837950.77847      2240.547          42.000
  21231131.620   111570384.405 9      2443.375          50.500    21231132.660
  86937990.02248      1903.930          47.250
  21247951.420   111658759.440 9      -452.465          50.250    21247951.560
  87006825.07348      -352.570          48.250
  21256196.220   111702114.442 9     -2257.699          50.250    21256192.900
  87040621.12348     -1759.250          45.500
  25239378.640   132633833.187 6      -865.363          41.000    25239375.580
 103351024.30443      -674.309          29.750
  21586924.800   113440084.526 9     -2041.969          51.500    21586919.880
  88394855.24548     -1591.145          45.250
  23208533.300   121961711.218 8     -2874.613          47.500    23208533.280
  95035126.06446     -2239.957          39.000
  20363112.860   107008929.131 9       466.719          51.500    20363112.720
  83383574.10649       363.672          51.250
  25474126.680   133867436.297 5      3361.918          36.750    25474126.420
 104312284.68645      2619.672          37.750
 19  1  1  0 10 30.0000000  0  9G07G08G09G16G21G23G26G27G30
  22655575.580   119055864.057 9      2870.855          49.750    22655573.080
  92770792.70947      2237.031          42.250
  21217228.940   111497325.373 9      2427.824          50.500    21217229.960
  86881060.93548      1891.813          48.000
  21250593.360   111672642.629 9      -472.602          50.000    21250593.380
  87017643.13648      -368.266          48.750
  21269108.260   111769967.717 9     -2265.320          50.000    21269104.900
  87093493.80348     -1765.188          46.000
  25244362.260   132660019.525 6      -879.910          40.750    25244358.400
 103371429.22344      -685.645          32.250
  21598629.800   113501592.170 9     -2058.074          51.250    21598624.500
  88442783.27348     -1603.699          45.750
  23224952.860   122047996.972 8     -2877.254          46.750    23224953.000
  95102361.70446     -2242.020          40.250
  20360510.120   106995251.853 9       445.621          51.500    20360509.980
  83372916.49749       347.238          51.500
  25454931.500   133766565.300 4      3363.406          35.750    25454931.360
 104233683.88343      2620.832          28.250
 19  1  1  0 11  0.0000000  0  9G07G08G09G16G21G23G26G27G30
  22639198.420   118969801.489 9      2866.973          50.000    22639195.740
  92703730.95647      2234.004          42.000
  21203413.880   111424726.654 9      2412.480          50.500    21203414.840
  86824490.52348      1879.855          48.250
  21253349.640   111687126.542 9      -492.594          50.500    21253349.600
  87028929.30449      -383.844          49.000
  21282062.560   111838043.680 9     -2272.715          50.250    21282059.380
  87146540.01048     -1770.945          46.250
  25249427.940   132686638.114 6      -894.242          41.250    25249424.260
 103392170.99243      -696.816          30.000
  21610425.000   113563574.812 9     -2073.699          51.250    21610419.400
  88491081.42348     -1615.875          46.000
  23241386.020   122134355.618 8     -2879.727          47.000    23241386.660
  95169654.14646     -2243.941          40.750
  20358026.720   106982201.592 9       424.801          51.750    20358026.500
  83362747.47749       331.012          51.750
  25435728.640   133665653.093 4      3365.512          35.750    25435726.720
 104155051.0434       2622.473          16.500
 19  1  1  0 11 30.0000000  0  9G07G08G09G16G21G23G26G27G30
  22622846.700   118883873.858 9      2862.176          49.250    22622844.340
  92636774.36947      2230.262          43.000
  21189688.620   111352599.726 9      2396.617          50.500    21189689.520
  86768287.73448      1867.488          48.000
  21256221.960   111702220.701 9      -513.047          50.000    21256222.020
  87040690.98149      -399.781          49.000
  21295061.140   111906351.101 9     -2280.500          50.000    21295057.920
  87199766.56748     -1777.016          46.000
  25254577.420   132713698.769 5      -909.203          38.000    25254573.360
 103413257.26943      -708.465          31.500
  21622311.880   113626040.517 9     -2089.984          51.000    21622306.260
  88539755.97248     -1628.563          45.750
  23257835.000   122220796.322 8     -2882.496          46.000    23257835.860
  95237010.54946     -2246.105          41.000
  20355664.640   106969788.426 9       403.250          51.500    20355664.300
  83353074.90449       314.223          51.500
  25416519.680   133564712.012 4      3365.703          34.250    25416522.180
 104076403.87644      2622.625          33.750
 19  1  1  0 12  0.0000000  0  8G07G08G09G16G21G23G26G27
  22606519.640   118798074.899 9      2857.863          49.500    22606517.060
  92569918.04147      2226.906          42.250
  21176051.920   111280938.573 9      2380.957          50.500    21176052.800
  86712447.89548      1855.293          48.000
  21259208.720   111717916.362 9      -533.082          50.000    21259208.980
  87052921.35648      -415.391          48.750
  21308101.660   111974879.925 9     -2287.926          49.750    21308098.400
  87253165.65548     -1782.805          45.500
  25259808.880   132741192.553 6      -923.473          39.000    25259805.880
 103434681.00843      -719.590          31.000
  21634288.560   113688979.133 9     -2105.762          50.500    21634283.160
  88588799.03848     -1640.855          45.250
  23274297.760   122307310.092 8     -2885.004          46.000    23274298.600
  95304423.86346     -2248.059          39.500
  20353422.160   106958004.250 9       382.316          51.500    20353421.760
  83343892.42449       297.906          51.500
 19  1  1  0 12 30.0000000  0  9G07G08G09G16G21G23G26G27G30
  22590216.280   118712399.933 9      2853.711          49.750    22590213.700
  92503158.32147      2223.672          42.500
  21162502.880   111209738.297 9      2365.609          50.500    21162503.740
  86656967.16548      1843.328          47.750
  21262308.380   111734206.200 9      -553.086          50.250    21262308.920
  87065614.72948      -430.980          48.250
  21321182.640   112043621.992 9     -2294.816          50.000    21321179.620
  87306730.90848     -1788.168          45.750
  25265121.640   132769112.569 6      -937.844          39.000    25265119.000
 103456436.85744      -730.789          32.000
  21646353.380   113752381.496 9     -2121.145          50.500    21646348.120
  88638203.45447     -1652.844          44.750
  23290773.160   122393889.284 8     -2887.082          45.750    23290774.400
  95371888.16346     -2249.676          39.750
  20351298.120   106946842.337 9       361.621          51.750    20351297.680
  83335194.84149       281.777          51.500
  25378079.900   133362709.234 5      3368.109          37.250    25378079.380
 103918990.68541      2624.492          25.250
 19  1  1  0 13  0.0000000  0  8G07G08G09G16G21G23G26G27
  22573940.660   118626871.404 9      2849.012          50.000    22573938.340
  92436512.73047      2220.004          42.750
  21149045.880   111139021.364 9      2349.621          50.750    21149046.640
  86601863.08348      1830.875          47.750
  21265525.060   111751110.109 9      -573.176          50.250    21265525.540
  87078786.60548      -446.633          48.000
  21334308.020   112112596.566 9     -2302.352          50.000    21334305.240
  87360477.32348     -1794.039          45.500
  25270519.420   132797478.744 6      -952.266          39.000    25270516.740
 103478540.35944      -742.027          32.250
  21658509.860   113816266.321 9     -2136.977          50.000    21658504.960
  88687983.81447     -1665.180          44.250
  23307264.680   122480553.666 8     -2889.637          46.000    23307265.960
  95439418.84045     -2251.668          38.500
  20349296.400   106936323.230 9       340.629          51.500    20349295.960
  83326998.14549       265.422          51.250
 19  1  1  0 13 30.0000000  0  8G07G08G09G16G21G23G26G27
  22557689.580   118541470.149 9      2844.676          50.250    22557687.080
  92369966.28947      2216.625          43.250
  21135677.440   111068769.046 9      2334.086          51.000    21135677.980
  86547121.03248      1818.770          48.500
  21268854.700   111768606.968 9      -592.988          50.000    21268855.040
  87092420.51948      -462.070          48.750
  21347473.360   112181781.504 9     -2309.602          49.500    21347470.820
  87414387.65748     -1799.695          46.250
  25275998.380   132826269.685 6      -966.824          40.000    25275995.500
 103500974.86943      -753.375          31.000
  21670753.620   113880610.865 9     -2152.469          49.250    21670749.320
  88738122.38947     -1677.254          44.750
  23323768.500   122567281.904 8     -2891.824          46.000    23323769.940
  95506999.27146     -2253.375          40.000
  20347412.980   106926426.390 9       319.516          51.500    20347412.580
  83319286.32849       248.973          51.500
 19  1  1  0 14  0.0000000  0  8G07G08G09G16G21G23G26G27
  22541464.680   118456207.427 9      2839.359          50.000    22541462.180
  92303527.81547      2212.488          43.250
  21122399.600   110998992.693 9      2317.578          50.750    21122399.960
  86492749.86848      1805.902          48.500
  21272298.800   111786705.279 9      -613.699          50.250    21272298.860
  87106523.09048      -478.211          48.500
  21360680.200   112251184.434 9     -2317.434          49.750    21360677.720
  87468467.86048     -1805.797          45.750
  25281559.600   132855494.377 5      -982.539          37.000    25281556.140
 103523747.35544      -765.609          33.000
  21683086.000   113945422.074 9     -2168.438          49.500    21683082.500
  88788624.59747     -1689.695          44.000
  23340286.260   122654082.279 8     -2894.883          46.250    23340287.540
  95574635.92646     -2255.758          39.500
  20345649.760   106917160.890 9       297.957          51.500    20345649.380
  83312066.47049       232.176          51.500
 19  1  1  0 14 30.0000000  0  9G07G08G09G16G21G23G26G27G30
  22525266.700   118371085.955 9      2835.039          50.500    22525263.960
  92237199.39347      2209.117          43.000
  21109212.520   110929694.367 9      2302.098          51.000    21109213.040
  86438751.19948      1793.844          48.500
  21275857.360   111805404.991 9      -633.250          50.500    21275857.300
  87121094.29148      -493.445          48.750
  21373928.520   112320804.484 9     -2324.164          50.250    21373925.840
  87522717.25848     -1811.035          45.500
  25287203.020   132885153.007 5      -995.883          37.500    25287199.960
 103546857.95644      -776.012          33.000
  21695507.200   114010698.396 9     -2183.422          49.750    21695504.220
  88839489.24347     -1701.367          44.250
  23356817.560   122740954.670 8     -2896.777          46.000    23356818.660
  95642328.69946     -2257.234          39.250
  20344006.840   106908527.348 9       277.352          51.750    20344006.500
  83305339.04749       216.113          51.500
  25301130.120   132958335.766 5      3372.523          36.750    25301128.760
 103603889.54341      2627.930          25.500
 19  1  1  0 15  0.0000000  0  9G07G08G09G16G21G23G26G27G30
  22509095.100   118286103.873 9      2830.449          49.750    22509092.340
  92170979.60347      2205.543          43.250
  21096116.100   110860872.562 9      2286.164          51.000    21096116.700
  86385123.83148      1781.422          48.250
  21279529.520   111824701.710 9      -653.027          50.250    21279529.380
  87136130.69148      -508.855          48.750
  21387217.240   112390636.646 9     -2331.320          49.750    21387214.420
  87577131.93148     -1816.617          45.750
  25292928.160   132915241.251 5     -1009.906          38.250    25292925.140
 103570303.38944      -786.934          34.000
  21708016.380   114076433.726 9     -2198.797          50.000    21708013.400
  88890711.53547     -1713.352          44.750
  23373361.740   122827894.602 8     -2899.250          45.500    23373362.720
  95710074.10146     -2259.156          40.000
  20342483.460   106900521.940 9       256.391          51.750    20342483.140
  83299101.07049       199.781          51.500
  25281878.360   132857167.397 5      3373.168          36.500    25281874.980
 103525051.42643      2628.441          30.750
 19  1  1  0 15 30.0000000  0  9G07G08G09G16G21G23G26G27G30
  22492947.700   118201248.837 9      2823.063          50.000    22492944.760
  92104858.81047      2199.789          43.000
  21083108.080   110792514.764 9      2267.680          50.750    21083108.680
  86331858.02048      1767.023          48.750
  21283312.400   111844580.729 9      -675.629          50.000    21283312.320
  87151620.83149      -526.469          49.000
  21400543.360   112460665.553 9     -2340.859          49.500    21400540.540
  87631699.91348     -1824.051          45.750
  25298733.000   132945744.112 6     -1026.809          39.250    25298729.920
 103594071.82944      -800.109          32.750
  21720610.180   114142612.075 9     -2216.660          50.000    21720606.880
  88942279.06348     -1727.273          45.250
  23389915.940   122914887.282 8     -2903.969          45.750    23389916.600
  95777860.61446     -2262.832          39.750
  20341076.900   106893130.596 9       232.980          51.500    20341076.660
  83293341.58849       181.543          51.500
  25262618.540   132755953.958 4      3371.320          35.250    25262609.800
 103446162.9114       2627.004          21.750
 19  1  1  0 16  0.0000000  0  8G07G08G09G16G21G23G26G27
  22476830.840   118116553.801 9      2816.859          50.000    22476827.660
  92038862.67847      2194.953          42.750
  21070194.660   110724653.942 9      2250.168          51.000    21070195.160
  86278979.46248      1753.375          48.500
  21287211.820   111865072.319 9      -696.848          50.000    21287211.960
  87167588.29448      -543.004          48.750
  21413912.580   112530920.821 9     -2349.184          49.750    21413909.680
  87686444.27848     -1830.535          45.500
  25304622.420   132976692.495 6     -1043.004          39.750    25304619.960
 103618187.42442      -812.730          27.250
  21733293.880   114209262.199 9     -2233.160          50.750    21733290.040
  88994214.19747     -1740.129          44.500
  23406485.860   123001962.999 8     -2907.492          46.250    23406486.940
  95845711.77346     -2265.582          39.500
  20339793.080   106886384.166 9       210.613          51.750    20339792.820
  83288084.63749       164.113          51.250
 19  1  1  0 16 30.0000000  0  8G07G08G09G16G21G23G26G27
  22460740.740   118032000.774 9      2816.070          50.250    22460737.840
  91972977.22547      2194.336          42.500
  21057372.360   110657272.093 9      2238.016          51.250    21057372.820
  86226474.13848      1743.910          48.250
  21291223.900   111886155.627 9      -712.676          50.250    21291223.940
  87184016.85148      -555.336          48.750
  21427320.660   112601380.734 9     -2352.082          49.750    21427317.800
  87741348.10548     -1832.797          45.750
  25310592.320   133008065.522 5     -1053.031          38.750    25310590.020
 103642633.99643      -820.543          29.250
  21746063.120   114276361.769 9     -2244.129          51.000    21746058.660
  89046499.57347     -1748.676          44.500
  23423067.740   123089100.833 8     -2905.559          46.250    23423068.700
  95913611.37446     -2264.074          40.000
  20338628.240   106880262.380 9       193.723          51.750    20338627.880
  83283314.41949       150.953          51.250
 19  1  1  0 17  0.0000000  0  8G07G08G09G16G21G23G26G27
  22444678.780   117947594.289 9      2810.977          50.250    22444675.680
  91907205.91847      2190.367          42.500
  21044641.860   110590373.353 9      2221.691          51.000    21044642.400
  86174345.27048      1731.188          48.500
  21295348.920   111907832.380 9      -732.656          50.500    21295348.740
  87200907.81248      -570.906          48.500
  21440767.900   112672046.239 9     -2359.207          50.000    21440765.020
  87796412.13748     -1838.344          45.500
  25316643.540   133039865.076 5     -1067.156          38.250    25316641.060
 103667412.89044      -831.555          33.250
  21758917.500   114343910.922 9     -2259.293          50.250    21758912.740
  89099135.25547     -1760.492          44.750
  23439661.780   123176302.548 8     -2907.941          46.250    23439662.800
  95981560.75646     -2265.930          39.750
  20337582.700   106874767.484 9       172.590          51.750    20337582.220
  83279032.69449       134.480          51.500
 19  1  1  0 17 30.0000000  0  8G07G08G09G16G21G23G26G27
  22428645.640   117863340.560 9      2806.109          50.500    22428642.840
  91841553.68247      2186.574          42.500
  21032004.500   110523964.064 9      2205.574          51.000    21032005.100
  86122597.79448      1718.625          48.500
  21299587.480   111930106.329 9      -752.160          50.000    21299587.220
  87218264.13548      -586.098          48.500
  21454254.980   112742920.747 9     -2365.715          49.750    21454252.040
  87851639.03148     -1843.414          45.750
  25322776.660   133072094.724 5     -1081.066          38.000    25322774.300
 103692526.90145      -842.395          36.000
  21771857.500   114411912.116 9     -2274.023          50.750    21771852.860
  89152123.17447     -1771.969          44.750
  23456268.580   123263572.028 8     -2910.051          46.000    23456269.620
  96049562.94446     -2267.574          40.500
  20336657.200   106869904.075 9       151.855          51.750    20336656.760
  83275243.02549       118.324          51.250
 19  1  1  0 18  0.0000000  0 10G07G08G09G11G16G21G23G26G27G30
  22412640.160   117779230.278 9      2800.699          50.500    22412637.100
  91776013.19747      2182.359          42.750
  21019458.540   110458034.920 9      2189.105          51.250    21019459.140
  86071224.47648      1705.797          48.250
  21303937.320   111952965.315 9      -772.219          50.500    21303937.260
  87236076.32248      -601.734          48.000
  25892365.360   136065296.154 5      3617.414          38.500

  21467779.240   112813991.605 9     -2372.738          49.750    21467776.400
  87907018.91648     -1848.887          45.500
  25328989.120   133104743.056 5     -1095.586          38.000    25328986.500
 103717967.12942      -853.711          27.500
  21784881.240   114480351.678 9     -2289.129          51.000    21784876.520
  89205452.70847     -1783.742          44.500
  23472886.260   123350897.149 8     -2912.172          46.500    23472887.100
  96117608.46546     -2269.230          39.750
  20335849.680   106865660.421 9       130.617          51.750    20335849.240
  83271936.29149       101.781          51.250
  25166255.620   132249558.829 5      3377.641          36.000    25166255.220
 103051622.39644      2631.930          32.250
 19  1  1  0 18 30.0000000  0 10G07G08G09G11G16G21G23G26G27G30
  22396664.760   117695279.176 9      2795.344          50.500    22396661.780
  91710596.76847      2178.191          43.250
  21007007.020   110392601.441 9      2172.594          51.250    21007007.560
  86020237.38048      1692.930          48.500
  21308401.000   111976422.540 9      -792.152          50.250    21308401.080
  87254354.67748      -617.266          48.500
  25871697.640   135956688.917 5      3622.102          38.750    25871698.920
 105940292.83342      2822.418          27.750
  21481343.220   112885271.247 9     -2379.797          49.750    21481340.540
  87962561.49348     -1854.391          45.750
  25335284.340   133137823.102 6     -1110.137          39.750    25335281.780
 103743743.80344      -865.039          32.500
  21797990.560   114549241.212 9     -2304.113          50.500    21797985.900
  89259132.84847     -1795.418          44.750
  23489516.980   123438291.277 8     -2914.930          45.750    23489517.640
  96185707.79346     -2271.379          40.500
  20335162.660   106862050.366 9       109.512          51.750    20335162.300
  83269123.26849        85.328          51.250
  25146969.540   132148215.102 4      3377.543          33.250    25146970.720
 102972653.26244      2631.848          32.750
 19  1  1  0 19  0.0000000  0 10G07G08G09G11G16G21G23G26G27G30
  22380719.040   117611482.912 9      2790.953          50.250    22380715.900
  91645300.96547      2174.766          43.000
  20994648.840   110327658.410 9      2156.871          51.000    20994649.180
  85969632.45148      1680.680          48.500
  21312977.140   112000470.263 9      -811.227          50.000    21312977.280
  87273093.15348      -632.125          48.250
  25851003.940   135847939.873 6      3627.879          39.250    25851001.760
 105855553.3984       2826.918          21.000
  21494945.560   112956751.737 9     -2385.719          49.750    21494942.920
  88018260.57448     -1859.004          46.000
  25341660.540   133171327.687 6     -1123.719          39.250    25341657.460
 103769851.25743      -875.629          31.500
  21811183.640   114618572.004 9     -2318.082          49.750    21811179.320
  89313156.81547     -1806.301          44.750
  23506159.120   123525746.809 8     -2915.848          45.750    23506159.960
  96253854.93046     -2272.094          40.750
  20334594.860   106859066.720 9        89.375          51.500    20334594.500
  83266798.36149        69.641          51.500
  25127680.880   132046853.350 5      3379.805          36.750    25127681.760
 102893656.59544      2633.602          32.750
 19  1  1  0 19 30.0000000  0 10G07G08G09G11G16G21G23G26G27G30
  22364802.680   117527842.280 9      2784.996          50.500    22364799.560
  91580126.46347      2170.121          43.250
  20982384.240   110263207.265 9      2139.840          51.250    20982384.400
  85919410.80548      1667.406          48.500
  21317665.300   112025106.639 9      -831.316          50.000    21317665.400
  87292290.32748      -647.777          48.250
  25830283.480   135739050.582 6      3631.629          40.250    25830281.000
 105770704.58242      2829.836          26.750
  21508585.660   113028430.379 9     -2392.875          49.750    21508582.820
  88074114.05348     -1864.578          45.250
  25348116.740   133205255.431 6     -1138.398          39.750    25348113.680
 103796288.42744      -887.066          34.750
  21824459.920   114688340.648 9     -2333.305          49.750    21824455.860
  89367521.98447     -1818.164          44.000
  23522812.580   123613262.128 8     -2918.875          45.250    23522813.520
  96322048.66946     -2274.453          40.500
  20334146.020   106856708.321 9        67.777          51.750    20334145.680
  83264960.65649        52.809          51.250
  25108388.840   131945470.113 5      3379.219          36.250    25108388.760
 102814656.69042      2633.164          27.000
 19  1  1  0 20  0.0000000  0 10G07G08G09G11G16G21G23G26G27G30
  22348917.400   117444363.971 9      2780.258          50.500    22348914.200
  91515078.43247      2166.434          43.500
  20970214.280   110199253.812 9      2123.781          51.000    20970214.460
  85869576.96048      1654.895          48.500
  21322466.140   112050335.571 9      -850.457          50.250    21322466.200
  87311949.22648      -662.699          48.000
  25809537.160   135630028.024 6      3636.129          40.750    25809534.940
 105685751.9844       2833.344          21.500
  21522264.000   113100310.746 9     -2399.051          49.750    21522261.000
  88130124.73048     -1869.391          45.250
  25354654.380   133239609.584 6     -1152.641          40.000    25354651.260
 103823057.96344      -898.160          34.000
  21837819.560   114758549.506 9     -2347.332          49.000    21837816.160
  89422230.15747     -1829.094          44.000
  23539478.000   123700841.301 8     -2920.336          45.000    23539479.380
  96390292.17746     -2275.590          40.750
  20333817.040   106854979.585 9        47.391          51.750    20333816.680
  83263613.59749        36.930          51.250
  25089093.820   131844073.319 4      3380.336          35.250    25089092.820
 102735646.26043      2634.035          29.750
 19  1  1  0 20 30.0000000  0  9G07G08G09G11G16G21G23G26G27
  22333062.900   117361047.909 9      2774.223          50.250    22333059.820
  91450156.84047      2161.727          44.000
  20958138.880   110135797.687 9      2106.688          51.000    20958139.160
  85820130.65148      1641.574          48.750
  21327379.160   112076153.817 9      -870.574          49.750    21327379.180
  87332067.33648      -678.375          48.500
  25788765.560   135520872.254 6      3640.434          41.250    25788763.620
 105600695.5914       2836.699          21.500
  21535980.160   113172389.422 9     -2406.051          49.750    21535977.000
  88186289.92848     -1874.848          45.500
  25361272.560   133274387.632 5     -1166.820          38.000    25361269.060
 103850157.73244      -909.211          35.250
  21851262.120   114829193.852 9     -2362.355          49.250    21851259.280
  89477277.65847     -1840.801          44.250
  23556155.040   123788481.383 8     -2922.781          45.500    23556156.660
  96458583.12146     -2277.496          40.250
  20333607.360   106853877.927 9        25.934          51.500    20333607.060
  83262755.17049        20.207          51.500
 19  1  1  0 21  0.0000000  0  9G07G08G09G11G16G21G23G26G27
  22317238.540   117277890.449 9      2769.473          50.500    22317235.440
  91385358.82347      2158.027          43.500
  20946157.440   110072835.223 9      2090.730          51.000    20946157.800
  85771069.00149      1629.141          49.000
  21332402.880   112102554.861 9      -889.512          49.750    21332402.980
  87352639.56648      -693.129          48.000
  25767967.940   135411579.944 7      3645.637          42.000    25767965.940
 105515532.79543      2840.762          31.500
  21549732.680   113244659.300 9     -2411.914          49.750    21549729.520
  88242604.12948     -1879.340          45.000
  25367970.040   133309583.012 5     -1180.203          38.750    25367966.420
 103877582.69744      -919.641          34.750
  21864786.600   114900265.855 9     -2375.859          49.750    21864783.820
  89532658.41147     -1851.324          43.750
  23572842.700   123876176.093 8     -2923.984          45.000    23572844.540
  96526916.62446     -2278.434          40.000
  20333515.940   106853397.351 9         5.930          51.750    20333515.600
  83262380.70449         4.621          51.250
 19  1  1  0 21 30.0000000  0 10G07G08G09G11G16G21G23G26G27G30
  22301445.060   117194895.845 9      2763.258          50.250    22301442.100
  91320687.71947      2153.188          43.500
  20934270.760   110010370.185 9      2073.391          51.000    20934271.160
  85722394.96049      1615.629          49.000
  21337537.940   112129540.111 9      -909.895          49.750    21337538.040
  87373667.03848      -709.012          48.250
  25747145.320   135302155.886 7      3649.031          43.000    25747143.520
 105430267.27643      2843.402          31.000
  21563521.800   113317121.662 9     -2419.156          49.750    21563518.720
  88299068.29748     -1885.063          45.000
  25374747.700   133345197.709 6     -1195.000          39.500    25374742.940
 103905334.37844      -931.172          34.000
  21878393.120   114971765.733 9     -2390.945          50.250    21878389.740
  89588372.57347     -1863.078          44.250
  23589541.360   123963927.130 8     -2926.594          46.250    23589543.080
  96595294.05146     -2280.465          39.250
  20333543.080   106853539.886 9       -15.703          51.750    20333542.740
  83262491.77949       -12.238          51.250
  25031189.920   131539790.293 4      3381.895          35.250    25031187.900
 102498534.9144       2635.227          22.500
 19  1  1  0 22  0.0000000  0 10G07G08G09G11G16G21G23G26G27G30
  22285683.960   117112070.921 9      2757.559          50.250    22285681.000
  91256148.82447      2148.742          43.750
  20922479.900   109948408.882 9      2056.598          51.000    20922480.340
  85674113.43549      1602.543          49.500
  21342784.900   112157113.104 9      -929.332          49.750    21342784.880
  87395152.48948      -724.160          48.000
  25726298.680   135192606.883 6      3653.395          41.750    25726296.840
 105344904.47343      2846.797          31.750
  21577348.140   113389779.569 9     -2425.539          49.500    21577345.120
  88355684.84248     -1890.066          45.500
  25381605.120   133381235.349 5     -1208.805          37.500    25381601.040
 103933415.64943      -941.930          28.250
  21892081.900   115043695.201 9     -2405.191          51.000    21892077.420
  89644421.50347     -1874.176          44.750
  23606251.460   124051738.473 8     -2928.414          46.500    23606252.840
  96663718.46446     -2281.883          39.500
  20333689.580   106854309.718 9       -36.461          51.500    20333689.240
  83263091.64949       -28.414          51.500
  25011884.060   131438337.254 5      3381.477          37.750    25011881.980
 102419474.65852      2634.918          26.250
 19  1  1  0 22 30.0000000  0 10G07G08G09G11G16G21G23G26G27G30
  22269955.580   117029417.292 9      2752.184          50.500    22269952.480
  91191743.39147      2144.555          44.250
  20910785.220   109886953.029 9      2040.184          51.000    20910785.640
  85626225.78049      1589.750          49.000
  21348143.520   112185272.690 9      -948.477          50.000    21348143.260
  87417095.00748      -739.078          47.750
  25705428.320   135082935.142 6      3657.984          41.750    25705426.720
 105259446.00444      2850.379          33.000
  21591211.380   113462631.440 9     -2431.641          49.750    21591208.300
  88412452.53947     -1894.785          44.750
  25388542.820   133417694.756 5     -1222.293          37.250    25388539.300
 103961825.65843      -952.434          31.250
  21905851.960   115116052.194 9     -2419.008          50.750    21905846.620
  89700803.56147     -1884.945          44.250
  23622972.920   124139609.245 8     -2929.707          46.250    23622974.100
  96732189.18146     -2282.891          39.500
  20333955.220   106855706.212 9       -57.074          51.500    20333954.960
  83264179.83049       -44.477          51.500
  24992577.140   131336876.747 6      3382.000          39.500    24992576.900
 102340414.50244      2635.328          33.000
 19  1  1  0 23  0.0000000  0 10G07G08G09G11G16G21G23G26G27G30
  22254259.160   116946932.203 9      2746.461          50.750    22254256.240
  91127469.30447      2140.094          44.250
  20899185.980   109825998.848 9      2023.145          51.000    20899186.420
  85578729.04449      1576.477          49.000
  21353612.640   112214012.607 9      -967.867          50.000    21353612.340
  87439489.74148      -754.188          47.750
  25684534.340   134973137.834 7      3661.773          42.750    25684532.880
 105173889.66444      2853.328          32.250
  21605110.260   113535670.941 9     -2437.961          49.500    21605107.140
  88469366.42648     -1899.711          45.500
  25395559.760   133454570.599 5     -1235.828          37.250    25395556.460
 103990560.03844      -962.988          34.250
  21919701.460   115188829.288 9     -2433.156          50.250    21919695.680
  89757512.95447     -1895.969          44.000
  23639704.260   124227533.708 8     -2931.848          45.250    23639705.600
  96800701.74046     -2284.559          40.750
  20334339.140   106857723.746 9       -77.719          51.500    20334338.840
  83265751.93749       -60.559          51.500
  24973267.720   131235405.083 5      3382.344          37.750    24973267.640
 102261345.68242      2635.590          27.500
 19  1  1  0 23 30.0000000  0 10G07G08G09G11G16G21G23G26G27G30
  22238595.080   116864617.278 9      2741.129          50.750    22238592.240
  91063327.80947      2135.945          43.750
  20887682.340   109765547.668 9      2006.777          51.000    20887682.920
  85531624.24749      1563.723          49.000
  21359191.780   112243331.530 9      -986.926          49.750    21359191.540
  87462335.64948      -769.035          47.750
  25663616.940   134863217.324 6      3665.988          41.250    25663615.600
 105088237.30044      2856.605          33.750
  21619044.580   113608896.555 9     -2443.867          49.750    21619041.520
  88526425.34648     -1904.316          45.000
  25402656.080   133491857.745 6     -1249.988          39.000    25402653.520
 104019616.10843      -974.016          29.000
  21933629.380   115262023.032 9     -2446.559          49.500    21933623.840
  89814547.00647     -1906.414          43.500
  23656445.720   124315510.892 8     -2933.398          46.000    23656446.880
  96869255.37145     -2285.770          38.750
  20334841.240   106860361.611 9       -98.172          51.750    20334840.840
  83267807.41849       -76.496          51.500
  24953956.280   131133923.349 5      3382.934          38.500    24953955.860
 102182269.05244      2636.055          33.250
 19  1  1  0 24  0.0000000  0 10G07G08G09G11G16G21G23G26G27G30
  22222964.460   116782477.416 9      2734.809          51.000    22222961.460
  90999322.72047      2131.020          43.500
  20876275.400   109705604.149 9      1989.387          51.250    20876276.040
  85484915.02849      1550.168          49.250
  21364881.440   112273231.169 9     -1006.430          50.250    21364881.280
  87485634.06348      -784.230          47.750
  25642676.820   134753178.140 6      3669.793          40.250    25642675.720
 105002492.53144      2859.578          33.500
  21633014.600   113682309.621 9     -2450.344          49.750    21633011.700
  88583630.33347     -1909.363          44.500
  25409831.560   133529566.072 5     -1263.902          38.750    25409828.880
 104048999.25041      -984.867          25.000
  21947635.880   115335634.812 8     -2460.934          48.500    21947631.760
  89871906.78447     -1917.613          43.250
  23673197.800   124403542.963 8     -2935.402          45.250    23673198.860
  96937851.81045     -2287.328          37.250
  20335461.780   106863622.053 9      -119.313          51.750    20335461.380
  83270348.02949       -92.977          51.500
  24934643.580   131032435.836 5      3383.305          38.000    24934644.160
 102103187.90344      2636.336          34.500
 19  1  1  0 24 30.0000000  0 10G07G08G09G11G16G21G23G26G27G30
  22207367.660   116700515.295 9      2729.344          51.000    22207364.620
  90935456.14547      2126.762          44.250
  20864965.580   109646170.375 9      1972.871          51.500    20864966.180
  85438603.00549      1537.297          49.250
  21370681.740   112303711.302 9     -1025.336          50.250    21370681.420
  87509384.81448      -798.969          47.750
  25621715.220   134643023.750 6      3674.008          41.250    25621714.120
 104916657.98444      2862.859          32.000
  21647020.260   113755909.782 9     -2456.121          50.000    21647017.400
  88640981.10047     -1913.863          44.750
  25417086.520   133567691.286 5     -1278.297          37.250    25417083.540
 104078707.27544      -996.078          34.750
  21961721.540   115409662.663 8     -2474.285          48.500    21961718.800
  89929590.75747     -1928.020          43.500
  23689959.840   124491630.237 7     -2936.816          43.250    23689961.340
